{
"type": "FeatureCollection",
"name": "cool",
"crs": { "type": "name", "properties": { "name": "urn:ogc:def:crs:OGC:1.3:CRS84" } },
"features": [
{ "type": "Feature", "properties": { "fid": 565, "시설명": "장안경로당", "시설유형": "특정계층이용시설-회원이용시설", "주소": "경기도 수원시 팔달구 화서문로31번길 13", "시간": "09:00 ~ 18:00 (월-금)", "구분": "특정인 이용가능" }, "geometry": { "type": "Point", "coordinates": [ 127.010893438635065, 37.285525066510559 ] } },
{ "type": "Feature", "properties": { "fid": 571, "시설명": "신풍경로당", "시설유형": "특정계층이용시설-회원이용시설", "주소": "경기도 수원시 팔달구 화서문로16번길 70", "시간": "09:00 ~ 18:00 (월-금)", "구분": "특정인 이용가능" }, "geometry": { "type": "Point", "coordinates": [ 127.015294530181805, 37.285411334030634 ] } },
{ "type": "Feature", "properties": { "fid": 573, "시설명": "북수동경로당", "시설유형": "특정계층이용시설-회원이용시설", "주소": "경기도 수원시 팔달구 화서문로75번길 5", "시간": "09:00 ~ 18:00 (월-금)", "구분": "특정인 이용가능" }, "geometry": { "type": "Point", "coordinates": [ 127.016294252977957, 37.286246966266212 ] } },
{ "type": "Feature", "properties": { "fid": 332, "시설명": "꽃뫼양지경로당", "시설유형": "특정계층이용시설-회원이용시설", "주소": "경기도 수원시 팔달구 화산로6번길 40-4", "시간": "09:00 ~ 18:00 (월-금)", "구분": "특정인 이용가능" }, "geometry": { "type": "Point", "coordinates": [ 126.987146789525553, 37.286226288703567 ] } },
{ "type": "Feature", "properties": { "fid": 287, "시설명": "일월도서관", "시설유형": "공공시설-복지·문화·체육시설", "주소": "경기도 수원시 장안구 일월천로 77", "시간": "기본 : 07:00 ~ 21:00 (월,화,수,목,토,일)", "구분": "누구나 이용가능" }, "geometry": { "type": "Point", "coordinates": [ 126.976858143862174, 37.286377110223661 ] } },
{ "type": "Feature", "properties": { "fid": 326, "시설명": "신동아(아)경로당", "시설유형": "특정계층이용시설-회원이용시설", "주소": "경기도 수원시 팔달구 화산로 24", "시간": "09:00 ~ 18:00 (월-금)", "구분": "특정인 이용가능" }, "geometry": { "type": "Point", "coordinates": [ 126.986598019778498, 37.287032759813158 ] } },
{ "type": "Feature", "properties": { "fid": 307, "시설명": "꽃뫼양지마을현대(아)경로당", "시설유형": "특정계층이용시설-회원이용시설", "주소": "경기도 수원시 팔달구 화산로17번길 6", "시간": "09:00 ~ 18:00 (월-금)", "구분": "특정인 이용가능" }, "geometry": { "type": "Point", "coordinates": [ 126.985287289821173, 37.287220320847965 ] } },
{ "type": "Feature", "properties": { "fid": 319, "시설명": "꽃뫼경로당", "시설유형": "특정계층이용시설-회원이용시설", "주소": "경기도 수원시 팔달구 수성로157번길 35", "시간": "09:00 ~ 18:00 (월-금)", "구분": "특정인 이용가능" }, "geometry": { "type": "Point", "coordinates": [ 126.989293645587665, 37.28762907841778 ] } },
{ "type": "Feature", "properties": { "fid": 346, "시설명": "꽃뫼버들마을금강(아)경로당", "시설유형": "특정계층이용시설-회원이용시설", "주소": "경기도 수원시 팔달구 정자천로32번길 27", "시간": "09:00 ~ 18:00 (월-금)", "구분": "특정인 이용가능" }, "geometry": { "type": "Point", "coordinates": [ 126.982573257670083, 37.288227292115039 ] } },
{ "type": "Feature", "properties": { "fid": 269, "시설명": "꽃뫼버들마을LG(아)경로당", "시설유형": "특정계층이용시설-회원이용시설", "주소": "경기도 수원시 팔달구 정자천로32번길 20", "시간": "09:00 ~ 18:00 (월-금)", "구분": "특정인 이용가능" }, "geometry": { "type": "Point", "coordinates": [ 126.980470295253042, 37.288235698109474 ] } },
{ "type": "Feature", "properties": { "fid": 289, "시설명": "꽃뫼버들마을진흥(아)경로당", "시설유형": "특정계층이용시설-회원이용시설", "주소": "경기도 수원시 팔달구 화산로 57", "시간": "09:00 ~ 18:00 (월-금)", "구분": "특정인 이용가능" }, "geometry": { "type": "Point", "coordinates": [ 126.983957282255361, 37.288950615940642 ] } },
{ "type": "Feature", "properties": { "fid": 339, "시설명": "꽃뫼노을마을풍림(아)경로당", "시설유형": "특정계층이용시설-회원이용시설", "주소": "경기도 수원시 팔달구 수성로157번길 75", "시간": "09:00 ~ 18:00 (월-금)", "구분": "특정인 이용가능" }, "geometry": { "type": "Point", "coordinates": [ 126.987929548180318, 37.289082840489677 ] } },
{ "type": "Feature", "properties": { "fid": 233, "시설명": "점터경로당", "시설유형": "특정계층이용시설-회원이용시설", "주소": "경기도 수원시 장안구 정자천로13번길 19-6", "시간": "기본 : 09:00 ~ 18:00 (월,화,수,목,금)", "구분": "특정인 이용가능" }, "geometry": { "type": "Point", "coordinates": [ 126.978249663422602, 37.28974696667337 ] } },
{ "type": "Feature", "properties": { "fid": 136, "시설명": "천천푸르지오(아)경로당", "시설유형": "특정계층이용시설-회원이용시설", "주소": "경기도 수원시 장안구 화산로 85", "시간": "기본 : 09:00 ~ 18:00 (월,화,수,목,금)", "구분": "특정인 이용가능" }, "geometry": { "type": "Point", "coordinates": [ 126.980494992226056, 37.291627268141347 ] } },
{ "type": "Feature", "properties": { "fid": 260, "시설명": "삼성1단지경로당", "시설유형": "특정계층이용시설-회원이용시설", "주소": "경기도 수원시 장안구 서부로 2065", "시간": "기본 : 09:00 ~ 18:00 (월,화,수,목,금)", "구분": "특정인 이용가능" }, "geometry": { "type": "Point", "coordinates": [ 126.969071464151611, 37.292009545029934 ] } },
{ "type": "Feature", "properties": { "fid": 1, "시설명": "청솔마을주공(아)경로당", "시설유형": "특정계층이용시설-회원이용시설", "주소": "경기도 수원시 장안구 천천로21번길 33", "시간": "09:00 ~ 18:00 (월-금)", "구분": "특정인 이용가능" }, "geometry": { "type": "Point", "coordinates": [ 126.985476781027359, 37.292370285895693 ] } },
{ "type": "Feature", "properties": { "fid": 82, "시설명": "삼환나우빌(아)경로당", "시설유형": "특정계층이용시설-회원이용시설", "주소": "경기도 수원시 장안구 천천로22번길 34", "시간": "09:00 ~ 18:00 (월-금)", "구분": "특정인 이용가능" }, "geometry": { "type": "Point", "coordinates": [ 126.989263968676497, 37.293786419592266 ] } },
{ "type": "Feature", "properties": { "fid": 47, "시설명": "청솔마을SK한화(아)경로당", "시설유형": "특정계층이용시설-회원이용시설", "주소": "경기도 수원시 장안구 만석로20번길 25", "시간": "09:00 ~ 18:00 (월-금)", "구분": "특정인 이용가능" }, "geometry": { "type": "Point", "coordinates": [ 126.985789918360311, 37.294502864706686 ] } },
{ "type": "Feature", "properties": { "fid": 170, "시설명": "삼성2단지경로당", "시설유형": "특정계층이용시설-회원이용시설", "주소": "경기도 수원시 장안구 서부로 2095-1", "시간": "기본 : 09:00 ~ 18:00 (월,화,수,목,금)", "구분": "특정인 이용가능" }, "geometry": { "type": "Point", "coordinates": [ 126.969159592628074, 37.294914991816725 ] } },
{ "type": "Feature", "properties": { "fid": 357, "시설명": "꽃뫼노을마을한마루(아)경로당", "시설유형": "특정계층이용시설-회원이용시설", "주소": "경기도 수원시 장안구 덕영대로639번길 63", "시간": "기본 : 09:00 ~ 18:00 (월,화,수,목,금)", "구분": "특정인 이용가능" }, "geometry": { "type": "Point", "coordinates": [ 126.98900661882206, 37.291180642712732 ] } },
{ "type": "Feature", "properties": { "fid": 359, "시설명": "꽃뫼양지마을대우(아)경로당", "시설유형": "특정계층이용시설-회원이용시설", "주소": "경기도 수원시 팔달구 수성로101번길 20", "시간": "09:00 ~ 18:00 (월-금)", "구분": "특정인 이용가능" }, "geometry": { "type": "Point", "coordinates": [ 126.985060196844472, 37.285508048450161 ] } },
{ "type": "Feature", "properties": { "fid": 414, "시설명": "꽃뫼노을마을한국(아)경로당", "시설유형": "특정계층이용시설-회원이용시설", "주소": "경기도 수원시 장안구 대평로51번길 56", "시간": "기본 : 09:00 ~ 18:00 (월,화,수,목,금)", "구분": "특정인 이용가능" }, "geometry": { "type": "Point", "coordinates": [ 126.990731388895185, 37.29221236797526 ] } },
{ "type": "Feature", "properties": { "fid": 474, "시설명": "청솔마을한라비발디(아)경로당", "시설유형": "특정계층이용시설-회원이용시설", "주소": "경기도 수원시 장안구 만석로20번길 28", "시간": "기본 : 09:00 ~ 18:00 (월,화,수,목,금)", "구분": "특정인 이용가능" }, "geometry": { "type": "Point", "coordinates": [ 126.983716474501946, 37.294173109768103 ] } },
{ "type": "Feature", "properties": { "fid": 525, "시설명": "상구운경로당", "시설유형": "경로당", "주소": "경기도 수원시 권선구 수인로 324-11", "시간": "09:00 ~ 18:00 (월~금)", "구분": "특정인 이용가능" }, "geometry": { "type": "Point", "coordinates": [ 126.96905248213082, 37.285769161136315 ] } },
{ "type": "Feature", "properties": { "fid": 534, "시설명": "구운청구(아)경로당", "시설유형": "경로당", "주소": "경기도 수원시 권선구 수성로35번길 60", "시간": "09:00 ~ 18:00 (월~금)", "구분": "특정인 이용가능" }, "geometry": { "type": "Point", "coordinates": [ 126.977710178431764, 37.285551690321242 ] } },
{ "type": "Feature", "properties": { "fid": 101, "시설명": "삼익(아)경로당", "시설유형": "특정계층이용시설-회원이용시설", "주소": "경기도 수원시 장안구 경수대로 1102", "시간": "기본 : 09:00 ~ 18:00 (월,화,수,목,금)", "구분": "특정인 이용가능" }, "geometry": { "type": "Point", "coordinates": [ 126.992906195550916, 37.31069057353659 ] } },
{ "type": "Feature", "properties": { "fid": 75, "시설명": "연꽃마을풍림(아)경로당", "시설유형": "특정계층이용시설-회원이용시설", "주소": "경기도 수원시 장안구 정자천로189번길 47", "시간": "09:00 ~ 18:00 (월-금)", "구분": "특정인 이용가능" }, "geometry": { "type": "Point", "coordinates": [ 126.993356158053672, 37.298051491085538 ] } },
{ "type": "Feature", "properties": { "fid": 74, "시설명": "노송경로당", "시설유형": "특정계층이용시설-회원이용시설", "주소": "경기도 수원시 장안구 경수대로1073번길 11", "시간": "기본 : 09:00 ~ 18:00 (월,화,수,목,금)", "구분": "특정인 이용가능" }, "geometry": { "type": "Point", "coordinates": [ 126.994738679871574, 37.308427435850405 ] } },
{ "type": "Feature", "properties": { "fid": 81, "시설명": "파장경로당", "시설유형": "특정계층이용시설-회원이용시설", "주소": "경기도 수원시 장안구 파장천로 51", "시간": "기본 : 09:00 ~ 18:00 (월,화,수,목,금)", "구분": "특정인 이용가능" }, "geometry": { "type": "Point", "coordinates": [ 126.99624141166737, 37.309950541399701 ] } },
{ "type": "Feature", "properties": { "fid": 32, "시설명": "파장동행정복지센터", "시설유형": "공공시설-공공청사", "주소": "경기도 수원시 장안구 파장천로 60", "시간": "기본 : 09:00 ~ 18:00 (월,화,수,목,금)", "구분": "누구나 이용가능" }, "geometry": { "type": "Point", "coordinates": [ 126.997371402708353, 37.310245891482808 ] } },
{ "type": "Feature", "properties": { "fid": 10, "시설명": "SK청솔노인복지관", "시설유형": "특정계층이용시설-회원이용시설", "주소": "경기도 수원시 장안구 장안로 174", "시간": "기본 : 09:00 ~ 18:00 (월,화,수,목,금)", "구분": "특정인 이용가능" }, "geometry": { "type": "Point", "coordinates": [ 126.997454832622168, 37.298845252967794 ] } },
{ "type": "Feature", "properties": { "fid": 108, "시설명": "화남2차경로당", "시설유형": "특정계층이용시설-회원이용시설", "주소": "경기도 수원시 장안구 파장천로44번길 33", "시간": "기본 : 09:00 ~ 18:00 (월,화,수,목,금)", "구분": "특정인 이용가능" }, "geometry": { "type": "Point", "coordinates": [ 126.998052152497593, 37.309164604539376 ] } },
{ "type": "Feature", "properties": { "fid": 67, "시설명": "파송경로당", "시설유형": "특정계층이용시설-회원이용시설", "주소": "경기도 수원시 장안구 파장로22번길 30", "시간": "기본 : 09:00 ~ 18:00 (월,화,수,목,금)", "구분": "특정인 이용가능" }, "geometry": { "type": "Point", "coordinates": [ 126.999618510050212, 37.305222273931676 ] } },
{ "type": "Feature", "properties": { "fid": 88, "시설명": "파장동현대(아)경로당", "시설유형": "특정계층이용시설-회원이용시설", "주소": "경기도 수원시 장안구 파장천로44번길 75", "시간": "기본 : 09:00 ~ 18:00 (월,화,수,목,금)", "구분": "특정인 이용가능" }, "geometry": { "type": "Point", "coordinates": [ 127.00058869731798, 37.307818567964226 ] } },
{ "type": "Feature", "properties": { "fid": 94, "시설명": "일림경로당", "시설유형": "특정계층이용시설-회원이용시설", "주소": "경기도 수원시 장안구 수일로104번길 20", "시간": "기본 : 09:00 ~ 18:00 (월,화,수,목,금)", "구분": "특정인 이용가능" }, "geometry": { "type": "Point", "coordinates": [ 127.001185601212768, 37.308599031705661 ] } },
{ "type": "Feature", "properties": { "fid": 262, "시설명": "화서위브하늘채(아)경로당", "시설유형": "특정계층이용시설-회원이용시설", "주소": "경기도 수원시 팔달구 수성로244번길 25", "시간": "09:00 ~ 18:00 (월-금)", "구분": "특정인 이용가능" }, "geometry": { "type": "Point", "coordinates": [ 127.000624512431472, 37.288527807673226 ] } },
{ "type": "Feature", "properties": { "fid": 276, "시설명": "화서3단지(아)경로당", "시설유형": "특정계층이용시설-회원이용시설", "주소": "경기도 수원시 팔달구 덕영대로697번길 47", "시간": "09:00 ~ 18:00 (월-금)", "구분": "특정인 이용가능" }, "geometry": { "type": "Point", "coordinates": [ 126.992255247381934, 37.28596453884731 ] } },
{ "type": "Feature", "properties": { "fid": 296, "시설명": "동신1단지경로당", "시설유형": "특정계층이용시설-회원이용시설", "주소": "경기도 수원시 장안구 장안로 232", "시간": "기본 : 09:00 ~ 18:00 (월,화,수,목,금)", "구분": "특정인 이용가능" }, "geometry": { "type": "Point", "coordinates": [ 126.995629332617781, 37.302656396343068 ] } },
{ "type": "Feature", "properties": { "fid": 299, "시설명": "남서울그린맨션경로당", "시설유형": "특정계층이용시설-회원이용시설", "주소": "경기도 수원시 장안구 만석로159번길 77", "시간": "기본 : 09:00 ~ 18:00 (월,화,수,목,금)", "구분": "특정인 이용가능" }, "geometry": { "type": "Point", "coordinates": [ 126.995634356616051, 37.304659656584484 ] } },
{ "type": "Feature", "properties": { "fid": 305, "시설명": "미도(아)경로당", "시설유형": "특정계층이용시설-회원이용시설", "주소": "경기도 수원시 장안구 대평로162번길 50", "시간": "기본 : 09:00 ~ 18:00 (월,화,수,목,금)", "구분": "특정인 이용가능" }, "geometry": { "type": "Point", "coordinates": [ 126.992342402364969, 37.302567205139667 ] } },
{ "type": "Feature", "properties": { "fid": 314, "시설명": "화서다산도서관", "시설유형": "공공시설-복지·문화·체육시설", "주소": "경기도 수원시 팔달구 화양로68번길 7-35", "시간": "07:00 ~ 23:00 (화-일)", "구분": "누구나 이용가능" }, "geometry": { "type": "Point", "coordinates": [ 126.997385789585763, 37.285391419531251 ] } },
{ "type": "Feature", "properties": { "fid": 330, "시설명": "동남(아)경로당", "시설유형": "특정계층이용시설-회원이용시설", "주소": "경기도 수원시 장안구 정자로 158", "시간": "기본 : 09:00 ~ 18:00 (월,화,수,목,금)", "구분": "특정인 이용가능" }, "geometry": { "type": "Point", "coordinates": [ 126.993092501673857, 37.304753200280089 ] } },
{ "type": "Feature", "properties": { "fid": 337, "시설명": "벽산블루밍(아)경로당", "시설유형": "특정계층이용시설-회원이용시설", "주소": "경기도 수원시 장안구 파장로 53", "시간": "기본 : 09:00 ~ 18:00 (월,화,수,목,금)", "구분": "특정인 이용가능" }, "geometry": { "type": "Point", "coordinates": [ 126.994670925311226, 37.304360159642165 ] } },
{ "type": "Feature", "properties": { "fid": 344, "시설명": "경남아너스빌(아)경로당", "시설유형": "특정계층이용시설-회원이용시설", "주소": "경기도 수원시 장안구 만석로159번길 31", "시간": "기본 : 09:00 ~ 18:00 (월,화,수,목,금)", "구분": "특정인 이용가능" }, "geometry": { "type": "Point", "coordinates": [ 126.996725778358837, 37.302198809271431 ] } },
{ "type": "Feature", "properties": { "fid": 350, "시설명": "동신2단지경로당", "시설유형": "특정계층이용시설-회원이용시설", "주소": "경기도 수원시 장안구 장안로 211", "시간": "기본 : 09:00 ~ 18:00 (월,화,수,목,금)", "구분": "특정인 이용가능" }, "geometry": { "type": "Point", "coordinates": [ 126.993400907378302, 37.300472475371492 ] } },
{ "type": "Feature", "properties": { "fid": 364, "시설명": "동신3단지경로당", "시설유형": "특정계층이용시설-회원이용시설", "주소": "경기도 수원시 장안구 장안로 199", "시간": "기본 : 09:00 ~ 18:00 (월,화,수,목,금)", "구분": "특정인 이용가능" }, "geometry": { "type": "Point", "coordinates": [ 126.995131189520492, 37.300622893315598 ] } },
{ "type": "Feature", "properties": { "fid": 376, "시설명": "벽산3차(아)경로당", "시설유형": "특정계층이용시설-회원이용시설", "주소": "경기도 수원시 장안구 정자천로188번길 28", "시간": "기본 : 09:00 ~ 18:00 (월,화,수,목,금)", "구분": "특정인 이용가능" }, "geometry": { "type": "Point", "coordinates": [ 126.996126094209416, 37.29523413888203 ] } },
{ "type": "Feature", "properties": { "fid": 383, "시설명": "정자2동행정복지센터", "시설유형": "공공시설-공공청사", "주소": "경기도 수원시 장안구 송정로24번길 34", "시간": "기본 : 09:00 ~ 18:00 (월,화,수,목,금)", "구분": "누구나 이용가능" }, "geometry": { "type": "Point", "coordinates": [ 127.000523799007851, 37.2949942573538 ] } },
{ "type": "Feature", "properties": { "fid": 401, "시설명": "정자동신미주(아)경로당", "시설유형": "특정계층이용시설-회원이용시설", "주소": "경기도 수원시 장안구 수성로275번길 133", "시간": "기본 : 09:00 ~ 18:00 (월,화,수,목,금)", "구분": "특정인 이용가능" }, "geometry": { "type": "Point", "coordinates": [ 126.99807671458035, 37.295153419227915 ] } },
{ "type": "Feature", "properties": { "fid": 405, "시설명": "현대경로당", "시설유형": "특정계층이용시설-회원이용시설", "주소": "경기도 수원시 장안구 정자천로188번길 71-21", "시간": "기본 : 09:00 ~ 18:00 (월,화,수,목,금)", "구분": "특정인 이용가능" }, "geometry": { "type": "Point", "coordinates": [ 126.998710285993411, 37.294127928199359 ] } },
{ "type": "Feature", "properties": { "fid": 409, "시설명": "영남우방한솔(아)경로당", "시설유형": "특정계층이용시설-회원이용시설", "주소": "경기도 수원시 장안구 수성로245번길 21", "시간": "기본 : 09:00 ~ 18:00 (월,화,수,목,금)", "구분": "특정인 이용가능" }, "geometry": { "type": "Point", "coordinates": [ 126.997398470329486, 37.290597508066341 ] } },
{ "type": "Feature", "properties": { "fid": 421, "시설명": "화서역파크푸르지오시니어클럽", "시설유형": "특정계층이용시설-회원이용시설", "주소": "경기도 수원시 장안구 대평로 27", "시간": "기본 : 09:00 ~ 18:00 (월,화,수,목,금)", "구분": "특정인 이용가능" }, "geometry": { "type": "Point", "coordinates": [ 126.994588561638594, 37.289972394556649 ] } },
{ "type": "Feature", "properties": { "fid": 434, "시설명": "기로경로당", "시설유형": "특정계층이용시설-회원이용시설", "주소": "경기도 수원시 장안구 수성로245번길 68", "시간": "기본 : 09:00 ~ 18:00 (월,화,수,목,금)", "구분": "특정인 이용가능" }, "geometry": { "type": "Point", "coordinates": [ 126.997583284369824, 37.292233885074261 ] } },
{ "type": "Feature", "properties": { "fid": 440, "시설명": "스마트버스정류장(정자3동주민센터)", "시설유형": "공공시설-스마트쉼터", "주소": "경기도 수원시 장안구 정자동 877-8", "시간": "기본 : 00:00 ~ 24:00 (월,화,수,목,금,토,일)", "구분": "누구나 이용가능" }, "geometry": { "type": "Point", "coordinates": [ 126.993272959196929, 37.295650929556736 ] } },
{ "type": "Feature", "properties": { "fid": 451, "시설명": "정자3동행정복지센터", "시설유형": "공공시설-공공청사", "주소": "경기도 수원시 장안구 대평로 85", "시간": "기본 : 09:00 ~ 18:00 (월,화,수,목,금)", "구분": "누구나 이용가능" }, "geometry": { "type": "Point", "coordinates": [ 126.992527701506816, 37.295826125589279 ] } },
{ "type": "Feature", "properties": { "fid": 468, "시설명": "연꽃마을벽산(아)경로당", "시설유형": "특정계층이용시설-회원이용시설", "주소": "경기도 수원시 장안구 정자천로189번길 40", "시간": "기본 : 09:00 ~ 18:00 (월,화,수,목,금)", "구분": "특정인 이용가능" }, "geometry": { "type": "Point", "coordinates": [ 126.99581590372722, 37.298656293175235 ] } },
{ "type": "Feature", "properties": { "fid": 392, "시설명": "동문경로당", "시설유형": "특정계층이용시설-회원이용시설", "주소": "경기도 수원시 팔달구 창룡문로100번길 10", "시간": "09:00 ~ 18:00 (월-금)", "구분": "특정인 이용가능" }, "geometry": { "type": "Point", "coordinates": [ 127.025746768704792, 37.285755338351144 ] } },
{ "type": "Feature", "properties": { "fid": 464, "시설명": "봉화경로당", "시설유형": "특정계층이용시설-회원이용시설", "주소": "경기도 수원시 팔달구 경수대로718번길 39", "시간": "09:00 ~ 18:00 (월-금)", "구분": "특정인 이용가능" }, "geometry": { "type": "Point", "coordinates": [ 127.026657208382872, 37.290812312759151 ] } },
{ "type": "Feature", "properties": { "fid": 435, "시설명": "창룡도서관", "시설유형": "공공시설-복지·문화·체육시설", "주소": "경기도 수원시 팔달구 월드컵로381번길 36", "시간": "07:00 ~ 23:00 (월-일)", "구분": "누구나 이용가능" }, "geometry": { "type": "Point", "coordinates": [ 127.028215930865201, 37.291031187102057 ] } },
{ "type": "Feature", "properties": { "fid": 447, "시설명": "충효경로당", "시설유형": "특정계층이용시설-회원이용시설", "주소": "경기도 수원시 팔달구 경수대로692번길 28-4", "시간": "09:00 ~ 18:00 (월-금)", "구분": "특정인 이용가능" }, "geometry": { "type": "Point", "coordinates": [ 127.02831550079884, 37.287126344443948 ] } },
{ "type": "Feature", "properties": { "fid": 429, "시설명": "우만경로당", "시설유형": "특정계층이용시설-회원이용시설", "주소": "경기도 수원시 팔달구 월드컵로365번길 20", "시간": "09:00 ~ 18:00 (월-금)", "구분": "특정인 이용가능" }, "geometry": { "type": "Point", "coordinates": [ 127.02981411357726, 37.289348440966315 ] } },
{ "type": "Feature", "properties": { "fid": 423, "시설명": "우만주공4단지(아)경로당", "시설유형": "특정계층이용시설-회원이용시설", "주소": "경기도 수원시 팔달구 창룡대로 194", "시간": "09:00 ~ 18:00 (월-금)", "구분": "특정인 이용가능" }, "geometry": { "type": "Point", "coordinates": [ 127.03065811917962, 37.291286117378618 ] } },
{ "type": "Feature", "properties": { "fid": 441, "시설명": "우만풍림(아)경로당", "시설유형": "특정계층이용시설-회원이용시설", "주소": "경기도 수원시 팔달구 세지로 439-13", "시간": "09:00 ~ 18:00 (월-금)", "구분": "특정인 이용가능" }, "geometry": { "type": "Point", "coordinates": [ 127.031636806741275, 37.287656996398965 ] } },
{ "type": "Feature", "properties": { "fid": 452, "시설명": "수곡경로당", "시설유형": "특정계층이용시설-회원이용시설", "주소": "경기도 수원시 팔달구 세지로 436", "시간": "09:00 ~ 18:00 (월-금)", "구분": "특정인 이용가능" }, "geometry": { "type": "Point", "coordinates": [ 127.032477323138053, 37.286810350562597 ] } },
{ "type": "Feature", "properties": { "fid": 458, "시설명": "우만주공3단지(아)경로당", "시설유형": "특정계층이용시설-회원이용시설", "주소": "경기도 수원시 팔달구 창룡대로210번길 13", "시간": "09:00 ~ 18:00 (월-금)", "구분": "특정인 이용가능" }, "geometry": { "type": "Point", "coordinates": [ 127.034915264873746, 37.292138943429499 ] } },
{ "type": "Feature", "properties": { "fid": 2, "시설명": "광교캠퍼스타운참누리(아)경로당", "시설유형": "특정계층이용시설-회원이용시설", "주소": "경기도 수원시 영통구 대학3로 55 (광교역참누리포레스트 7010동)", "시간": "09:00 ~ 18:00 (월~금)", "구분": "특정인 이용가능" }, "geometry": { "type": "Point", "coordinates": [ 127.039403309909048, 37.302234443440717 ] } },
{ "type": "Feature", "properties": { "fid": 292, "시설명": "화서한신휴플러스(아)경로당", "시설유형": "특정계층이용시설-회원이용시설", "주소": "경기도 수원시 팔달구 수성로258번길 52", "시간": "09:00 ~ 18:00 (월-금)", "구분": "특정인 이용가능" }, "geometry": { "type": "Point", "coordinates": [ 127.002181928542285, 37.287305037571933 ] } },
{ "type": "Feature", "properties": { "fid": 171, "시설명": "솔대경로당", "시설유형": "특정계층이용시설-회원이용시설", "주소": "경기도 수원시 장안구 수일로118번길 23", "시간": "09:00 ~ 18:00 (월-금)", "구분": "특정인 이용가능" }, "geometry": { "type": "Point", "coordinates": [ 127.002762375670116, 37.307841278130944 ] } },
{ "type": "Feature", "properties": { "fid": 185, "시설명": "만석공원경로당", "시설유형": "특정계층이용시설-회원이용시설", "주소": "경기도 수원시 장안구 정조로 1084", "시간": "09:00 ~ 18:00 (월-금)", "구분": "특정인 이용가능" }, "geometry": { "type": "Point", "coordinates": [ 127.003848646326659, 37.301875971881962 ] } },
{ "type": "Feature", "properties": { "fid": 102, "시설명": "서문경로당(영화동)", "시설유형": "특정계층이용시설-회원이용시설", "주소": "경기도 수원시 장안구 장안로 33 (영화동)", "시간": "09:00 ~ 18:00 (월-금)", "구분": "특정인 이용가능" }, "geometry": { "type": "Point", "coordinates": [ 127.004675007968387, 37.287668386252953 ] } },
{ "type": "Feature", "properties": { "fid": 164, "시설명": "동진(아)경로당", "시설유형": "특정계층이용시설-회원이용시설", "주소": "경기도 수원시 장안구 정조로1060번길 5", "시간": "09:00 ~ 18:00 (월-금)", "구분": "특정인 이용가능" }, "geometry": { "type": "Point", "coordinates": [ 127.004935552848735, 37.301152483645843 ] } },
{ "type": "Feature", "properties": { "fid": 192, "시설명": "안심마을경로당", "시설유형": "특정계층이용시설-회원이용시설", "주소": "경기도 수원시 장안구 정조로1041번길 12-3", "시간": "09:00 ~ 18:00 (월-금)", "구분": "특정인 이용가능" }, "geometry": { "type": "Point", "coordinates": [ 127.005698962634852, 37.298619087002301 ] } },
{ "type": "Feature", "properties": { "fid": 199, "시설명": "수원아너스빌위즈(아)경로당", "시설유형": "특정계층이용시설-회원이용시설", "주소": "경기도 수원시 장안구 송원로 20", "시간": "09:00 ~ 18:00 (월-금)", "구분": "특정인 이용가능" }, "geometry": { "type": "Point", "coordinates": [ 127.006643259846811, 37.297240660420876 ] } },
{ "type": "Feature", "properties": { "fid": 206, "시설명": "송죽동행정복지센터", "시설유형": "공공시설-공공청사", "주소": "경기도 수원시 장안구 송원로41번길 16-21", "시간": "09:00 ~ 18:00 (월-금)", "구분": "누구나 이용가능" }, "geometry": { "type": "Point", "coordinates": [ 127.006765388005931, 37.300218058985813 ] } },
{ "type": "Feature", "properties": { "fid": 178, "시설명": "로얄팰리스경로당", "시설유형": "특정계층이용시설-회원이용시설", "주소": "경기도 수원시 장안구 송정로 83", "시간": "09:00 ~ 18:00 (월-금)", "구분": "특정인 이용가능" }, "geometry": { "type": "Point", "coordinates": [ 127.007300854110611, 37.296127183495919 ] } },
{ "type": "Feature", "properties": { "fid": 318, "시설명": "한일타운(아)제2경로당", "시설유형": "특정계층이용시설-회원이용시설", "주소": "경기도 수원시 장안구 경수대로976번길 22", "시간": "09:00 ~ 18:00 (월-금)", "구분": "특정인 이용가능" }, "geometry": { "type": "Point", "coordinates": [ 127.00732607681816, 37.305486749343707 ] } },
{ "type": "Feature", "properties": { "fid": 6, "시설명": "한일타운(아)제1경로당", "시설유형": "특정계층이용시설-회원이용시설", "주소": "경기도 수원시 장안구 경수대로976번길 22", "시간": "09:00 ~ 18:00 (월-금)", "구분": "특정인 이용가능" }, "geometry": { "type": "Point", "coordinates": [ 127.00732607681816, 37.305486749343707 ] } },
{ "type": "Feature", "properties": { "fid": 130, "시설명": "태영(아)경로당", "시설유형": "특정계층이용시설-회원이용시설", "주소": "경기도 수원시 장안구 영화로25번길 22", "시간": "09:00 ~ 18:00 (월-금)", "구분": "특정인 이용가능" }, "geometry": { "type": "Point", "coordinates": [ 127.008005685516693, 37.289057322568077 ] } },
{ "type": "Feature", "properties": { "fid": 338, "시설명": "대추골도서관", "시설유형": "공공시설-복지·문화·체육시설", "주소": "경기도 수원시 장안구 수일로 164", "시간": "07:00 ~ 23:00 (월-목/토-일)", "구분": "누구나 이용가능" }, "geometry": { "type": "Point", "coordinates": [ 127.008209266914449, 37.306445078463405 ] } },
{ "type": "Feature", "properties": { "fid": 116, "시설명": "서부경로당", "시설유형": "특정계층이용시설-회원이용시설", "주소": "경기도 수원시 장안구 영화로38번길 4", "시간": "09:00 ~ 18:00 (월-금)", "구분": "특정인 이용가능" }, "geometry": { "type": "Point", "coordinates": [ 127.008967533277826, 37.290348758734787 ] } },
{ "type": "Feature", "properties": { "fid": 95, "시설명": "화성경로당", "시설유형": "특정계층이용시설-회원이용시설", "주소": "경기도 수원시 장안구 영화로7번길 22", "시간": "09:00 ~ 18:00 (월-금)", "구분": "특정인 이용가능" }, "geometry": { "type": "Point", "coordinates": [ 127.009119833612132, 37.287656874203144 ] } },
{ "type": "Feature", "properties": { "fid": 325, "시설명": "조원2동행정복지센터", "시설유형": "공공시설-공공청사", "주소": "경기도 수원시 장안구 송원로 109-50", "시간": "09:00 ~ 18:00 (월-금)", "구분": "누구나 이용가능" }, "geometry": { "type": "Point", "coordinates": [ 127.009579399548514, 37.305623482931942 ] } },
{ "type": "Feature", "properties": { "fid": 331, "시설명": "장안구청", "시설유형": "공공시설-공공청사", "주소": "경기도 수원시 장안구 송원로 101", "시간": "09:00 ~ 18:00 (월-금)", "구분": "누구나 이용가능" }, "geometry": { "type": "Point", "coordinates": [ 127.010193684106667, 37.303827979090038 ] } },
{ "type": "Feature", "properties": { "fid": 288, "시설명": "스마트버스정류장(수원KT위즈파크)", "시설유형": "공공시설-스마트쉼터", "주소": "경기도 수원시 장안구 경수대로 893", "시간": "00:00 ~ 24:00 (매일)", "구분": "누구나 이용가능" }, "geometry": { "type": "Point", "coordinates": [ 127.010933168851054, 37.297962315322508 ] } },
{ "type": "Feature", "properties": { "fid": 109, "시설명": "동성영화타운경로당", "시설유형": "특정계층이용시설-회원이용시설", "주소": "경기도 수원시 장안구 정조로 941", "시간": "09:00 ~ 18:00 (월-금)", "구분": "특정인 이용가능" }, "geometry": { "type": "Point", "coordinates": [ 127.011906472165961, 37.291282005147139 ] } },
{ "type": "Feature", "properties": { "fid": 313, "시설명": "스위첸(아)경로당", "시설유형": "특정계층이용시설-회원이용시설", "주소": "경기도 수원시 장안구 송원로 131-28", "시간": "09:00 ~ 18:00 (월-금)", "구분": "특정인 이용가능" }, "geometry": { "type": "Point", "coordinates": [ 127.012328357498674, 37.306657203940787 ] } },
{ "type": "Feature", "properties": { "fid": 234, "시설명": "송원경로당", "시설유형": "특정계층이용시설-회원이용시설", "주소": "경기도 수원시 장안구 송정로138번길 7-9", "시간": "09:00 ~ 18:00 (월-금)", "구분": "특정인 이용가능" }, "geometry": { "type": "Point", "coordinates": [ 127.012637561466576, 37.296647961411772 ] } },
{ "type": "Feature", "properties": { "fid": 345, "시설명": "광교산임광그대가(아)경로당", "시설유형": "특정계층이용시설-회원이용시설", "주소": "경기도 수원시 장안구 수일로 205", "시간": "09:00 ~ 18:00 (월-금)", "구분": "특정인 이용가능" }, "geometry": { "type": "Point", "coordinates": [ 127.012673486528399, 37.307720285480933 ] } },
{ "type": "Feature", "properties": { "fid": 144, "시설명": "영화동행정복지센터", "시설유형": "공공시설-공공청사", "주소": "경기도 수원시 장안구 수성로382번길 24", "시간": "09:00 ~ 18:00 (월-금)", "구분": "누구나 이용가능" }, "geometry": { "type": "Point", "coordinates": [ 127.014019330172346, 37.292997130177199 ] } },
{ "type": "Feature", "properties": { "fid": 241, "시설명": "조원경로당", "시설유형": "특정계층이용시설-회원이용시설", "주소": "경기도 수원시 장안구 조원로111번길 33-23", "시간": "09:00 ~ 18:00 (월-금)", "구분": "특정인 이용가능" }, "geometry": { "type": "Point", "coordinates": [ 127.014267559736851, 37.300164317993946 ] } },
{ "type": "Feature", "properties": { "fid": 151, "시설명": "영화경로당", "시설유형": "특정계층이용시설-회원이용시설", "주소": "경기도 수원시 장안구 팔달로291번길 21-20 (영화동)", "시간": "09:00 ~ 18:00 (월-금)", "구분": "특정인 이용가능" }, "geometry": { "type": "Point", "coordinates": [ 127.014629087192333, 37.291142777131775 ] } },
{ "type": "Feature", "properties": { "fid": 351, "시설명": "상광교경로당", "시설유형": "특정계층이용시설-회원이용시설", "주소": "경기도 수원시 장안구 광교산로 541", "시간": "09:00 ~ 18:00 (월-금)", "구분": "특정인 이용가능" }, "geometry": { "type": "Point", "coordinates": [ 127.014757409858731, 37.330500884433775 ] } },
{ "type": "Feature", "properties": { "fid": 300, "시설명": "조원주공뉴타운1단지(아)경로당", "시설유형": "특정계층이용시설-회원이용시설", "주소": "경기도 수원시 장안구 금당로39번길 33", "시간": "09:00 ~ 18:00 (월-금)", "구분": "특정인 이용가능" }, "geometry": { "type": "Point", "coordinates": [ 127.016111116438864, 37.304713839144107 ] } },
{ "type": "Feature", "properties": { "fid": 27, "시설명": "조원1동행정복지센터", "시설유형": "공공시설-공공청사", "주소": "경기도 수원시 장안구 금당로 56", "시간": "09:00 ~ 18:00 (월-금)", "구분": "누구나 이용가능" }, "geometry": { "type": "Point", "coordinates": [ 127.01651235165582, 37.301827046246729 ] } },
{ "type": "Feature", "properties": { "fid": 137, "시설명": "영화동벽산(아)경로당", "시설유형": "특정계층이용시설-회원이용시설", "주소": "경기도 수원시 장안구 수성로402번길 45-2", "시간": "09:00 ~ 18:00 (월-금)", "구분": "특정인 이용가능" }, "geometry": { "type": "Point", "coordinates": [ 127.017588501490891, 37.29329398796056 ] } },
{ "type": "Feature", "properties": { "fid": 282, "시설명": "더샵광교산퍼스트시니어하우스", "시설유형": "특정계층이용시설-회원이용시설", "주소": "경기도 수원시 장안구 송정로 190", "시간": "09:00 ~ 18:00 (월-금)", "구분": "특정인 이용가능" }, "geometry": { "type": "Point", "coordinates": [ 127.017617247732574, 37.29827524552929 ] } },
{ "type": "Feature", "properties": { "fid": 158, "시설명": "화홍경로당", "시설유형": "특정계층이용시설-회원이용시설", "주소": "경기도 수원시 장안구 수원천로407번길 1", "시간": "09:00 ~ 18:00 (월-금)", "구분": "특정인 이용가능" }, "geometry": { "type": "Point", "coordinates": [ 127.018639329482951, 37.289578622925497 ] } },
{ "type": "Feature", "properties": { "fid": 306, "시설명": "조원주공뉴타운2단지(아)경로당", "시설유형": "특정계층이용시설-회원이용시설", "주소": "경기도 수원시 장안구 금당로39번길 34", "시간": "09:00 ~ 18:00 (월-금)", "구분": "특정인 이용가능" }, "geometry": { "type": "Point", "coordinates": [ 127.019164887205775, 37.303295672861793 ] } },
{ "type": "Feature", "properties": { "fid": 227, "시설명": "금당골경로당", "시설유형": "특정계층이용시설-회원이용시설", "주소": "경기도 수원시 장안구 조원로58번길 39", "시간": "09:00 ~ 18:00 (월-금)", "구분": "특정인 이용가능" }, "geometry": { "type": "Point", "coordinates": [ 127.020024054802747, 37.300125312332575 ] } },
{ "type": "Feature", "properties": { "fid": 220, "시설명": "조원동벽산(아)경로당", "시설유형": "특정계층이용시설-회원이용시설", "주소": "경기도 수원시 장안구 조원로 16", "시간": "09:00 ~ 18:00 (월-금)", "구분": "특정인 이용가능" }, "geometry": { "type": "Point", "coordinates": [ 127.021320495773324, 37.297856565035403 ] } },
{ "type": "Feature", "properties": { "fid": 123, "시설명": "동부경로당", "시설유형": "특정계층이용시설-회원이용시설", "주소": "경기도 수원시 장안구 영화동 380-93", "시간": "09:00 ~ 18:00 (월-금)", "구분": "특정인 이용가능" }, "geometry": { "type": "Point", "coordinates": [ 127.021725254492779, 37.292056079790378 ] } },
{ "type": "Feature", "properties": { "fid": 384, "시설명": "연무경로당", "시설유형": "특정계층이용시설-회원이용시설", "주소": "경기도 수원시 장안구 경수대로 757", "시간": "09:00 ~ 18:00 (월-금)", "구분": "특정인 이용가능" }, "geometry": { "type": "Point", "coordinates": [ 127.021639078058598, 37.290452836973031 ] } },
{ "type": "Feature", "properties": { "fid": 390, "시설명": "금강에스쁘아(아)경로당", "시설유형": "특정계층이용시설-회원이용시설", "주소": "경기도 수원시 장안구 영화로71번길 24", "시간": "기본 : 09:00 ~ 18:00 (월,화,수,목,금)", "구분": "특정인 이용가능" }, "geometry": { "type": "Point", "coordinates": [ 127.005230208367863, 37.292631426204267 ] } },
{ "type": "Feature", "properties": { "fid": 396, "시설명": "눈e부신(아)경로당", "시설유형": "특정계층이용시설-회원이용시설", "주소": "경기도 수원시 장안구 영화로71번길 3", "시간": "기본 : 09:00 ~ 18:00 (월,화,수,목,금)", "구분": "특정인 이용가능" }, "geometry": { "type": "Point", "coordinates": [ 127.006472876339458, 37.292542115154859 ] } },
{ "type": "Feature", "properties": { "fid": 415, "시설명": "연무동행정복지센터", "시설유형": "공공시설-공공청사", "주소": "경기도 수원시 장안구 경수대로 757", "시간": "09:00 ~ 18:00 (월-금)", "구분": "누구나 이용가능" }, "geometry": { "type": "Point", "coordinates": [ 127.021639078058598, 37.290452836973031 ] } },
{ "type": "Feature", "properties": { "fid": 422, "시설명": "하광교경로당", "시설유형": "특정계층이용시설-회원이용시설", "주소": "경기도 수원시 장안구 광교산로 365", "시간": "09:00 ~ 18:00 (월-금)", "구분": "특정인 이용가능" }, "geometry": { "type": "Point", "coordinates": [ 127.01899890937473, 37.315583619369733 ] } },
{ "type": "Feature", "properties": { "fid": 428, "시설명": "정자2동경로당", "시설유형": "특정계층이용시설-회원이용시설", "주소": "경기도 수원시 장안구 송정로60번길 10-23", "시간": "기본 : 09:00 ~ 18:00 (월,화,수,목,금)", "구분": "특정인 이용가능" }, "geometry": { "type": "Point", "coordinates": [ 127.00294523742815, 37.295346996413045 ] } },
{ "type": "Feature", "properties": { "fid": 268, "시설명": "보훈복지타운제7경로당", "시설유형": "특정계층이용시설-회원이용시설", "주소": "경기도 수원시 장안구 수일로336번길 9", "시간": "09:00 ~ 18:00 (월-금)", "구분": "특정인 이용가능" }, "geometry": { "type": "Point", "coordinates": [ 127.022764682960073, 37.299300216983106 ] } },
{ "type": "Feature", "properties": { "fid": 248, "시설명": "보훈복지타운제2경로당", "시설유형": "특정계층이용시설-회원이용시설", "주소": "경기도 수원시 장안구 수일로336번길 9", "시간": "09:00 ~ 18:00 (월-금)", "구분": "특정인 이용가능" }, "geometry": { "type": "Point", "coordinates": [ 127.022764682960073, 37.299300216983106 ] } },
{ "type": "Feature", "properties": { "fid": 213, "시설명": "보훈복지타운제1경로당", "시설유형": "특정계층이용시설-회원이용시설", "주소": "경기도 수원시 장안구 수일로336번길 9", "시간": "09:00 ~ 18:00 (월-금)", "구분": "특정인 이용가능" }, "geometry": { "type": "Point", "coordinates": [ 127.022764682960073, 37.299300216983106 ] } },
{ "type": "Feature", "properties": { "fid": 261, "시설명": "보훈복지타운제4경로당", "시설유형": "특정계층이용시설-회원이용시설", "주소": "경기도 수원시 장안구 수일로336번길 9", "시간": "09:00 ~ 18:00 (월-금)", "구분": "특정인 이용가능" }, "geometry": { "type": "Point", "coordinates": [ 127.022764682960073, 37.299300216983106 ] } },
{ "type": "Feature", "properties": { "fid": 275, "시설명": "보훈복지타운제5경로당", "시설유형": "특정계층이용시설-회원이용시설", "주소": "경기도 수원시 장안구 수일로336번길 9", "시간": "09:00 ~ 18:00 (월-금)", "구분": "특정인 이용가능" }, "geometry": { "type": "Point", "coordinates": [ 127.022764682960073, 37.299300216983106 ] } },
{ "type": "Feature", "properties": { "fid": 254, "시설명": "보훈복지타운제3경로당", "시설유형": "특정계층이용시설-회원이용시설", "주소": "경기도 수원시 장안구 수일로336번길 9", "시간": "09:00 ~ 18:00 (월-금)", "구분": "특정인 이용가능" }, "geometry": { "type": "Point", "coordinates": [ 127.022764682960073, 37.299300216983106 ] } },
{ "type": "Feature", "properties": { "fid": 370, "시설명": "동문밖경로당", "시설유형": "특정계층이용시설-회원이용시설", "주소": "경기도 수원시 장안구 경수대로754번길 59", "시간": "09:00 ~ 18:00 (월-금)", "구분": "특정인 이용가능" }, "geometry": { "type": "Point", "coordinates": [ 127.023997767829684, 37.293383749885351 ] } },
{ "type": "Feature", "properties": { "fid": 18, "시설명": "창용경로당", "시설유형": "특정계층이용시설-회원이용시설", "주소": "경기도 수원시 장안구 창훈로29번길 74", "시간": "09:00 ~ 18:00 (월-금)", "구분": "특정인 이용가능" }, "geometry": { "type": "Point", "coordinates": [ 127.026949940086354, 37.296436478204058 ] } },
{ "type": "Feature", "properties": { "fid": 377, "시설명": "유천경로당", "시설유형": "특정계층이용시설-회원이용시설", "주소": "경기도 수원시 장안구 연무로56번길 46-4", "시간": "09:00 ~ 18:00 (월-금)", "구분": "특정인 이용가능" }, "geometry": { "type": "Point", "coordinates": [ 127.027087576076866, 37.297353427945104 ] } },
{ "type": "Feature", "properties": { "fid": 365, "시설명": "장수경로당", "시설유형": "특정계층이용시설-회원이용시설", "주소": "경기도 수원시 장안구 월드컵로418번길 31", "시간": "09:00 ~ 18:00 (월-금)", "구분": "특정인 이용가능" }, "geometry": { "type": "Point", "coordinates": [ 127.027298703833736, 37.294371106244128 ] } },
{ "type": "Feature", "properties": { "fid": 397, "시설명": "수성경로당", "시설유형": "특정계층이용시설-회원이용시설", "주소": "경기도 수원시 장안구 연무로20번길 15", "시간": "09:00 ~ 18:00 (월-금)", "구분": "특정인 이용가능" }, "geometry": { "type": "Point", "coordinates": [ 127.029118184675056, 37.294603015401876 ] } },
{ "type": "Feature", "properties": { "fid": 406, "시설명": "연무동성원(아)경로당", "시설유형": "특정계층이용시설-회원이용시설", "주소": "경기도 수원시 장안구 창훈로60번길 31", "시간": "09:00 ~ 18:00 (월-금)", "구분": "특정인 이용가능" }, "geometry": { "type": "Point", "coordinates": [ 127.029496804415743, 37.298531870943876 ] } },
{ "type": "Feature", "properties": { "fid": 410, "시설명": "목화(아)경로당", "시설유형": "특정계층이용시설-회원이용시설", "주소": "경기도 수원시 장안구 창훈로 57-11", "시간": "09:00 ~ 18:00 (월-금)", "구분": "특정인 이용가능" }, "geometry": { "type": "Point", "coordinates": [ 127.029878942851965, 37.29683244659617 ] } },
{ "type": "Feature", "properties": { "fid": 358, "시설명": "창훈대경로당", "시설유형": "특정계층이용시설-회원이용시설", "주소": "경기도 수원시 장안구 창훈로39번길 4", "시간": "09:00 ~ 18:00 (월-금)", "구분": "특정인 이용가능" }, "geometry": { "type": "Point", "coordinates": [ 127.029980383143211, 37.296235411630029 ] } },
{ "type": "Feature", "properties": { "fid": 391, "시설명": "신미주(아)경로당", "시설유형": "특정계층이용시설-회원이용시설", "주소": "경기도 수원시 장안구 광교산로 148", "시간": "09:00 ~ 18:00 (월-금)", "구분": "특정인 이용가능" }, "geometry": { "type": "Point", "coordinates": [ 127.031327601616638, 37.300403881887213 ] } },
{ "type": "Feature", "properties": { "fid": 336, "시설명": "수원박물관", "시설유형": "공공시설-복지·문화·체육시설", "주소": "경기도 수원시 영통구 창룡대로 265 (수원박물관)", "시간": "09:00 ~ 18:00 (화~일)", "구분": "누구나 이용가능" }, "geometry": { "type": "Point", "coordinates": [ 127.035488363769105, 37.297839178394582 ] } },
{ "type": "Feature", "properties": { "fid": 54, "시설명": "백설마을현대코오롱(아)경로당", "시설유형": "특정계층이용시설-회원이용시설", "주소": "경기도 수원시 장안구 만석로68번길 10", "시간": "09:00 ~ 18:00 (월-금)", "구분": "특정인 이용가능" }, "geometry": { "type": "Point", "coordinates": [ 126.987978600667375, 37.296106137297606 ] } },
{ "type": "Feature", "properties": { "fid": 33, "시설명": "백설에듀빌(아)경로당", "시설유형": "특정계층이용시설-회원이용시설", "주소": "경기도 수원시 장안구 대평로89번길 32", "시간": "09:00 ~ 18:00 (월-금)", "구분": "특정인 이용가능" }, "geometry": { "type": "Point", "coordinates": [ 126.990592959477638, 37.296145963953798 ] } },
{ "type": "Feature", "properties": { "fid": 68, "시설명": "백설마을주공2단지(아)경로당", "시설유형": "특정계층이용시설-회원이용시설", "주소": "경기도 수원시 장안구 대평로89번길 10", "시간": "09:00 ~ 18:00 (월-금)", "구분": "특정인 이용가능" }, "geometry": { "type": "Point", "coordinates": [ 126.991608059349417, 37.296538677026355 ] } },
{ "type": "Feature", "properties": { "fid": 253, "시설명": "율전이안(아)경로당", "시설유형": "특정계층이용시설-회원이용시설", "주소": "경기도 수원시 장안구 율전로 73", "시간": "기본 : 09:00 ~ 18:00 (월,화,수,목,금)", "구분": "특정인 이용가능" }, "geometry": { "type": "Point", "coordinates": [ 126.966986016097934, 37.29672918585085 ] } },
{ "type": "Feature", "properties": { "fid": 267, "시설명": "율전경로당", "시설유형": "특정계층이용시설-회원이용시설", "주소": "경기도 수원시 장안구 서부로2106번길 26-16", "시간": "기본 : 09:00 ~ 18:00 (월,화,수,목,금)", "구분": "특정인 이용가능" }, "geometry": { "type": "Point", "coordinates": [ 126.971918718877077, 37.296938823901115 ] } },
{ "type": "Feature", "properties": { "fid": 198, "시설명": "밤밭경로당", "시설유형": "특정계층이용시설-회원이용시설", "주소": "경기도 수원시 장안구 율전로85번길 17-4", "시간": "기본 : 09:00 ~ 18:00 (월,화,수,목,금)", "구분": "특정인 이용가능" }, "geometry": { "type": "Point", "coordinates": [ 126.967303797567638, 37.297488155167635 ] } },
{ "type": "Feature", "properties": { "fid": 291, "시설명": "율천동행정복지센터", "시설유형": "공공시설-공공청사", "주소": "경기도 수원시 장안구 서부로2106번길 27", "시간": "기본 : 09:00 ~ 18:00 (월,화,수,목,금)", "구분": "누구나 이용가능" }, "geometry": { "type": "Point", "coordinates": [ 126.971371250725554, 37.297550445427767 ] } },
{ "type": "Feature", "properties": { "fid": 143, "시설명": "천천삼성래미안(아)경로당", "시설유형": "특정계층이용시설-회원이용시설", "주소": "경기도 수원시 장안구 화산로187번길 19", "시간": "기본 : 09:00 ~ 18:00 (월,화,수,목,금)", "구분": "특정인 이용가능" }, "geometry": { "type": "Point", "coordinates": [ 126.976272184600646, 37.297570741001479 ] } },
{ "type": "Feature", "properties": { "fid": 157, "시설명": "수원성균관대역동문굿모닝힐(아)경로당", "시설유형": "특정계층이용시설-회원이용시설", "주소": "경기도 수원시 장안구 율전로101번길 73", "시간": "기본 : 09:00 ~ 18:00 (월,화,수,목,금)", "구분": "특정인 이용가능" }, "geometry": { "type": "Point", "coordinates": [ 126.965881161892327, 37.297841090678574 ] } },
{ "type": "Feature", "properties": { "fid": 177, "시설명": "늘푸른벽산(아)경로당(율전동)", "시설유형": "특정계층이용시설-회원이용시설", "주소": "경기도 수원시 장안구 율전로101번길 40", "시간": "기본 : 09:00 ~ 18:00 (월,화,수,목,금)", "구분": "특정인 이용가능" }, "geometry": { "type": "Point", "coordinates": [ 126.96689092919209, 37.298947374146387 ] } },
{ "type": "Feature", "properties": { "fid": 274, "시설명": "신일(아)경로당", "시설유형": "특정계층이용시설-회원이용시설", "주소": "경기도 수원시 장안구 화산로 263", "시간": "기본 : 09:00 ~ 18:00 (월,화,수,목,금)", "구분": "특정인 이용가능" }, "geometry": { "type": "Point", "coordinates": [ 126.967194462175115, 37.299716189947837 ] } },
{ "type": "Feature", "properties": { "fid": 205, "시설명": "화남아파트경로당", "시설유형": "특정계층이용시설-회원이용시설", "주소": "경기도 수원시 장안구 화산로285번길 12", "시간": "기본 : 09:00 ~ 18:00 (월,화,수,목,금)", "구분": "특정인 이용가능" }, "geometry": { "type": "Point", "coordinates": [ 126.964380925028863, 37.300214020633767 ] } },
{ "type": "Feature", "properties": { "fid": 61, "시설명": "북수원리버파크경로당", "시설유형": "특정계층이용시설-회원이용시설", "주소": "경기도 수원시 장안구 천천로74번길 35", "시간": "09:00 ~ 18:00 (월-금)", "구분": "특정인 이용가능" }, "geometry": { "type": "Point", "coordinates": [ 126.985958819440484, 37.300237635401949 ] } },
{ "type": "Feature", "properties": { "fid": 40, "시설명": "대림진흥(아)경로당", "시설유형": "특정계층이용시설-회원이용시설", "주소": "경기도 수원시 장안구 천천로74번길 92", "시간": "09:00 ~ 18:00 (월-금)", "구분": "특정인 이용가능" }, "geometry": { "type": "Point", "coordinates": [ 126.988683807141882, 37.300493734256214 ] } },
{ "type": "Feature", "properties": { "fid": 219, "시설명": "일성(아)경로당", "시설유형": "특정계층이용시설-회원이용시설", "주소": "경기도 수원시 장안구 정자로19번길 18", "시간": "기본 : 09:00 ~ 18:00 (월,화,수,목,금)", "구분": "특정인 이용가능" }, "geometry": { "type": "Point", "coordinates": [ 126.979752308964223, 37.300986415881383 ] } },
{ "type": "Feature", "properties": { "fid": 212, "시설명": "비단마을신명(아)경로당", "시설유형": "특정계층이용시설-회원이용시설", "주소": "경기도 수원시 장안구 정자로41번길 12", "시간": "기본 : 09:00 ~ 18:00 (월,화,수,목,금)", "구분": "특정인 이용가능" }, "geometry": { "type": "Point", "coordinates": [ 126.981540947312439, 37.302021196151223 ] } },
{ "type": "Feature", "properties": { "fid": 281, "시설명": "신안한일(아)경로당", "시설유형": "특정계층이용시설-회원이용시설", "주소": "경기도 수원시 장안구 하률로30번길 22", "시간": "기본 : 09:00 ~ 18:00 (월,화,수,목,금)", "구분": "특정인 이용가능" }, "geometry": { "type": "Point", "coordinates": [ 126.975389760310733, 37.302054566092295 ] } },
{ "type": "Feature", "properties": { "fid": 226, "시설명": "삼호진덕(아)경로당", "시설유형": "특정계층이용시설-회원이용시설", "주소": "경기도 수원시 장안구 하률로46번길 22", "시간": "기본 : 09:00 ~ 18:00 (월,화,수,목,금)", "구분": "특정인 이용가능" }, "geometry": { "type": "Point", "coordinates": [ 126.977397518926836, 37.302127118405501 ] } },
{ "type": "Feature", "properties": { "fid": 14, "시설명": "정자1동행정복지센터", "시설유형": "공공시설-공공청사", "주소": "경기도 수원시 장안구 정자로130번길 20", "시간": "기본 : 09:00 ~ 18:00 (월,화,수,목,금)", "구분": "누구나 이용가능" }, "geometry": { "type": "Point", "coordinates": [ 126.991237376535636, 37.302190812949888 ] } },
{ "type": "Feature", "properties": { "fid": 312, "시설명": "정자1동경로당", "시설유형": "특정계층이용시설-회원이용시설", "주소": "경기도 수원시 장안구 정자로130번길 20", "시간": "기본 : 09:00 ~ 18:00 (월,화,수,목,금)", "구분": "특정인 이용가능" }, "geometry": { "type": "Point", "coordinates": [ 126.991237376535636, 37.302190812949888 ] } },
{ "type": "Feature", "properties": { "fid": 129, "시설명": "천천동현대(아)경로당", "시설유형": "특정계층이용시설-회원이용시설", "주소": "경기도 수원시 장안구 하률로46번길 17", "시간": "기본 : 09:00 ~ 18:00 (월,화,수,목,금)", "구분": "특정인 이용가능" }, "geometry": { "type": "Point", "coordinates": [ 126.979070856695429, 37.302673587577502 ] } },
{ "type": "Feature", "properties": { "fid": 150, "시설명": "상율전경로당", "시설유형": "특정계층이용시설-회원이용시설", "주소": "경기도 수원시 장안구 서부로2181번길 68-8", "시간": "기본 : 09:00 ~ 18:00 (월,화,수,목,금)", "구분": "특정인 이용가능" }, "geometry": { "type": "Point", "coordinates": [ 126.969728008444108, 37.303843382630888 ] } },
{ "type": "Feature", "properties": { "fid": 163, "시설명": "새밤밭경로당", "시설유형": "특정계층이용시설-회원이용시설", "주소": "경기도 수원시 장안구 서부로 2193", "시간": "기본 : 09:00 ~ 18:00 (월,화,수,목,금)", "구분": "특정인 이용가능" }, "geometry": { "type": "Point", "coordinates": [ 126.972531576715781, 37.304193230959072 ] } },
{ "type": "Feature", "properties": { "fid": 240, "시설명": "율전벽산블루밍(아)경로당", "시설유형": "특정계층이용시설-회원이용시설", "주소": "경기도 수원시 장안구 덕영대로407번길 63-27", "시간": "기본 : 09:00 ~ 18:00 (월,화,수,목,금)", "구분": "특정인 이용가능" }, "geometry": { "type": "Point", "coordinates": [ 126.966059747029789, 37.304391437989445 ] } },
{ "type": "Feature", "properties": { "fid": 191, "시설명": "밤밭노인복지관", "시설유형": "특정계층이용시설-회원이용시설", "주소": "경기도 수원시 장안구 상률로 53", "시간": "기본 : 09:00 ~ 18:00 (월,화,수,목,금)", "구분": "특정인 이용가능" }, "geometry": { "type": "Point", "coordinates": [ 126.972081171109139, 37.306234547999047 ] } },
{ "type": "Feature", "properties": { "fid": 247, "시설명": "밤꽃마을뜨란채(아)경로당", "시설유형": "특정계층이용시설-회원이용시설", "주소": "경기도 수원시 장안구 상률로 32", "시간": "기본 : 09:00 ~ 18:00 (월,화,수,목,금)", "구분": "특정인 이용가능" }, "geometry": { "type": "Point", "coordinates": [ 126.968369319548529, 37.306335512929046 ] } },
{ "type": "Feature", "properties": { "fid": 184, "시설명": "밤꽃마을주공2단지(아)경로당", "시설유형": "특정계층이용시설-회원이용시설", "주소": "경기도 수원시 장안구 상률로12번길 28", "시간": "기본 : 09:00 ~ 18:00 (월,화,수,목,금)", "구분": "특정인 이용가능" }, "geometry": { "type": "Point", "coordinates": [ 126.966417032881566, 37.306356334372644 ] } },
{ "type": "Feature", "properties": { "fid": 324, "시설명": "SK스카이뷰(아)경로당", "시설유형": "특정계층이용시설-회원이용시설", "주소": "경기도 수원시 장안구 이목로 24", "시간": "기본 : 09:00 ~ 18:00 (월,화,수,목,금)", "구분": "특정인 이용가능" }, "geometry": { "type": "Point", "coordinates": [ 126.985455945505123, 37.307511539402547 ] } },
{ "type": "Feature", "properties": { "fid": 115, "시설명": "세일경로당", "시설유형": "특정계층이용시설-회원이용시설", "주소": "경기도 수원시 장안구 이목로74번길 42", "시간": "기본 : 09:00 ~ 18:00 (월,화,수,목,금)", "구분": "특정인 이용가능" }, "geometry": { "type": "Point", "coordinates": [ 126.990634787851334, 37.309846502830254 ] } },
{ "type": "Feature", "properties": { "fid": 60, "시설명": "북수원아이파크(아)", "시설유형": "특정계층이용시설-회원이용시설", "주소": "경기도 수원시 장안구 경수대로 1110-15", "시간": "기본 : 09:00 ~ 18:00 (월,화,수,목,금)", "구분": "특정인 이용가능" }, "geometry": { "type": "Point", "coordinates": [ 126.991215623549479, 37.311487329074332 ] } },
{ "type": "Feature", "properties": { "fid": 53, "시설명": "장안힐스테이트(아)", "시설유형": "특정계층이용시설-회원이용시설", "주소": "경기도 수원시 장안구 장안로359번길 20", "시간": "기본 : 09:00 ~ 18:00 (월,화,수,목,금)", "구분": "특정인 이용가능" }, "geometry": { "type": "Point", "coordinates": [ 126.984218009512247, 37.312448087941327 ] } },
{ "type": "Feature", "properties": { "fid": 46, "시설명": "STX칸(아)", "시설유형": "특정계층이용시설-회원이용시설", "주소": "경기도 수원시 장안구 장안로 395", "시간": "기본 : 09:00 ~ 18:00 (월,화,수,목,금)", "구분": "특정인 이용가능" }, "geometry": { "type": "Point", "coordinates": [ 126.982976128749002, 37.314567514192312 ] } },
{ "type": "Feature", "properties": { "fid": 39, "시설명": "이목경로당", "시설유형": "특정계층이용시설-회원이용시설", "주소": "경기도 수원시 장안구 장안로398번길 13", "시간": "기본 : 09:00 ~ 18:00 (월,화,수,목,금)", "구분": "특정인 이용가능" }, "geometry": { "type": "Point", "coordinates": [ 126.984632018328426, 37.315703311080107 ] } },
{ "type": "Feature", "properties": { "fid": 122, "시설명": "이화경로당", "시설유형": "특정계층이용시설-회원이용시설", "주소": "경기도 수원시 장안구 장안로478번길 55", "시간": "기본 : 09:00 ~ 18:00 (월,화,수,목,금)", "구분": "특정인 이용가능" }, "geometry": { "type": "Point", "coordinates": [ 126.974866273832617, 37.320688514288726 ] } },
{ "type": "Feature", "properties": { "fid": 446, "시설명": "북수원도서관", "시설유형": "공공시설-복지·문화·체육시설", "주소": "경기도 수원시 장안구 만석로 65", "시간": "기본 : 07:00 ~ 23:00 (화,수,목,금,토,일)", "구분": "누구나 이용가능" }, "geometry": { "type": "Point", "coordinates": [ 126.989659134817344, 37.298815372737231 ] } },
{ "type": "Feature", "properties": { "fid": 457, "시설명": "비단마을베스트타운(아)경로당", "시설유형": "특정계층이용시설-회원이용시설", "주소": "경기도 수원시 장안구 정자로42번길 52", "시간": "기본 : 09:00 ~ 18:00 (월,화,수,목,금)", "구분": "특정인 이용가능" }, "geometry": { "type": "Point", "coordinates": [ 126.98087917707565, 37.298037878396173 ] } },
{ "type": "Feature", "properties": { "fid": 463, "시설명": "비단마을현대성우우방(아)", "시설유형": "특정계층이용시설-회원이용시설", "주소": "경기도 수원시 장안구 만석로 29", "시간": "기본 : 09:00 ~ 18:00 (월,화,수,목,금)", "구분": "특정인 이용가능" }, "geometry": { "type": "Point", "coordinates": [ 126.984413568817459, 37.296810194620981 ] } },
{ "type": "Feature", "properties": { "fid": 70, "시설명": "LG빌리지(아)2단지중앙경로", "시설유형": "특정계층이용시설-회원이용시설", "주소": "경기도 수원시 권선구 금곡로 45", "시간": "09:00 ~ 18:00 (월~금)", "구분": "특정인 이용가능" }, "geometry": { "type": "Point", "coordinates": [ 126.936856734051062, 37.272879744036238 ] } },
{ "type": "Feature", "properties": { "fid": 56, "시설명": "모아미래도(아)경로당", "시설유형": "특정계층이용시설-회원이용시설", "주소": "경기도 수원시 권선구 서수원로577번길 341", "시간": "09:00 ~ 18:00 (월~금)", "구분": "특정인 이용가능" }, "geometry": { "type": "Point", "coordinates": [ 126.938327472520854, 37.275490854826863 ] } },
{ "type": "Feature", "properties": { "fid": 139, "시설명": "휴먼시아7단지(아)경로당", "시설유형": "특정계층이용시설-회원이용시설", "주소": "경기도 수원시 권선구 금곡로102번길 126", "시간": "09:00 ~ 18:00 (월~금)", "구분": "특정인 이용가능" }, "geometry": { "type": "Point", "coordinates": [ 126.941805286329867, 37.26899828343894 ] } },
{ "type": "Feature", "properties": { "fid": 35, "시설명": "LH수원당수2단지(아)경로당", "시설유형": "특정계층이용시설-회원이용시설", "주소": "경기도 수원시 권선구 당수1로 15", "시간": "09:00 ~ 18:00 (월~금)", "구분": "특정인 이용가능" }, "geometry": { "type": "Point", "coordinates": [ 126.943721088989761, 37.280595887678622 ] } },
{ "type": "Feature", "properties": { "fid": 42, "시설명": "LH수원당수2단지아파트경로당", "시설유형": "특정계층이용시설-회원이용시설", "주소": "경기도 수원시 권선구 당수1로 15", "시간": "09:00 ~ 18:00 (월~금)", "구분": "특정인 이용가능" }, "geometry": { "type": "Point", "coordinates": [ 126.943721088989761, 37.280595887678622 ] } },
{ "type": "Feature", "properties": { "fid": 118, "시설명": "칠보마을9단지(아)경로당", "시설유형": "특정계층이용시설-회원이용시설", "주소": "경기도 수원시 권선구 금곡로140번길 73", "시간": "09:00 ~ 18:00 (월~목)", "구분": "특정인 이용가능" }, "geometry": { "type": "Point", "coordinates": [ 126.94596895524387, 37.27024244502929 ] } },
{ "type": "Feature", "properties": { "fid": 84, "시설명": "호매실휴먼시아4단지경로당", "시설유형": "특정계층이용시설-회원이용시설", "주소": "경기도 수원시 권선구 금곡로 137", "시간": "09:00 ~ 18:00 (월~금)", "구분": "특정인 이용가능" }, "geometry": { "type": "Point", "coordinates": [ 126.947314895932919, 37.274637572179188 ] } },
{ "type": "Feature", "properties": { "fid": 90, "시설명": "금곡동행정복지센터", "시설유형": "공공시설-공공청사", "주소": "경기도 수원시 권선구 금곡로196번길 20", "시간": "09:00 ~ 18:00 (월~금)", "구분": "누구나 이용가능" }, "geometry": { "type": "Point", "coordinates": [ 126.952188353721112, 37.272711641355926 ] } },
{ "type": "Feature", "properties": { "fid": 63, "시설명": "금곡강남(아)경로당", "시설유형": "특정계층이용시설-회원이용시설", "주소": "경기도 수원시 권선구 서수원로 607", "시간": "09:00 ~ 18:00 (월~금)", "구분": "특정인 이용가능" }, "geometry": { "type": "Point", "coordinates": [ 126.952432956735066, 37.278690396449797 ] } },
{ "type": "Feature", "properties": { "fid": 104, "시설명": "쌍용(아)경로당", "시설유형": "특정계층이용시설-회원이용시설", "주소": "경기도 수원시 권선구 매실로19번길 19", "시간": "09:00 ~ 18:00 (월~금)", "구분": "특정인 이용가능" }, "geometry": { "type": "Point", "coordinates": [ 126.952488407732361, 37.268046480175457 ] } },
{ "type": "Feature", "properties": { "fid": 49, "시설명": "호반써밋수원(아)경로당", "시설유형": "특정계층이용시설-회원이용시설", "주소": "경기도 수원시 권선구 매곡로 67", "시간": "09:00 ~ 18:00 (월~금)", "구분": "특정인 이용가능" }, "geometry": { "type": "Point", "coordinates": [ 126.95382590323112, 37.271568234620268 ] } },
{ "type": "Feature", "properties": { "fid": 29, "시설명": "일신건영(아)경로당", "시설유형": "특정계층이용시설-회원이용시설", "주소": "경기도 수원시 권선구 매곡로 68", "시간": "09:00 ~ 18:00 (월~금)", "구분": "특정인 이용가능" }, "geometry": { "type": "Point", "coordinates": [ 126.954699353461805, 37.270445367697803 ] } },
{ "type": "Feature", "properties": { "fid": 97, "시설명": "스마트버스정류장(홈플러스서수원점)", "시설유형": "공공시설-스마트쉼터", "주소": "경기도 수원시 권선구 금곡로 236", "시간": "00:00 ~ 24:00 (매일)", "구분": "누구나 이용가능" }, "geometry": { "type": "Point", "coordinates": [ 126.956158791137014, 37.274407212705761 ] } },
{ "type": "Feature", "properties": { "fid": 166, "시설명": "노림경로당", "시설유형": "특정계층이용시설-회원이용시설", "주소": "경기도 수원시 권선구 매실로 47-21", "시간": "09:00 ~ 18:00 (월~금)", "구분": "특정인 이용가능" }, "geometry": { "type": "Point", "coordinates": [ 126.95619412778322, 37.268583881724403 ] } },
{ "type": "Feature", "properties": { "fid": 77, "시설명": "삼익1차(아)경로당", "시설유형": "특정계층이용시설-회원이용시설", "주소": "경기도 수원시 권선구 금호로 45", "시간": "09:00 ~ 18:00 (월~금)", "구분": "특정인 이용가능" }, "geometry": { "type": "Point", "coordinates": [ 126.95670184174125, 37.269758864404288 ] } },
{ "type": "Feature", "properties": { "fid": 111, "시설명": "삼익2차(아)경로당", "시설유형": "특정계층이용시설-회원이용시설", "주소": "경기도 수원시 권선구 매실로 61", "시간": "09:00 ~ 18:00 (월~금)", "구분": "특정인 이용가능" }, "geometry": { "type": "Point", "coordinates": [ 126.957480654776489, 37.268859148209778 ] } },
{ "type": "Feature", "properties": { "fid": 160, "시설명": "두암경로당", "시설유형": "특정계층이용시설-회원이용시설", "주소": "경기도 수원시 권선구 칠보로241번길 11-3", "시간": "09:00 ~ 18:00 (월~금)", "구분": "특정인 이용가능" }, "geometry": { "type": "Point", "coordinates": [ 126.958843682926783, 37.269629073313681 ] } },
{ "type": "Feature", "properties": { "fid": 180, "시설명": "자목경로당", "시설유형": "특정계층이용시설-회원이용시설", "주소": "경기도 수원시 권선구 칠보로88번길 90", "시간": "09:00 ~ 18:00 (월~금)", "구분": "특정인 이용가능" }, "geometry": { "type": "Point", "coordinates": [ 126.945263420285073, 37.263785738631213 ] } },
{ "type": "Feature", "properties": { "fid": 208, "시설명": "호매실GS(아)경로당", "시설유형": "특정계층이용시설-회원이용시설", "주소": "경기도 수원시 권선구 매실로 70", "시간": "09:00 ~ 18:00 (월~금)", "구분": "특정인 이용가능" }, "geometry": { "type": "Point", "coordinates": [ 126.958860074602569, 37.267526763817521 ] } },
{ "type": "Feature", "properties": { "fid": 236, "시설명": "호매실동행정복지센터", "시설유형": "공공시설-공공청사", "주소": "경기도 수원시 권선구 칠보로 161", "시간": "09:00 ~ 18:00 (월~금)", "구분": "누구나 이용가능" }, "geometry": { "type": "Point", "coordinates": [ 126.957049401089122, 37.266238273370078 ] } },
{ "type": "Feature", "properties": { "fid": 243, "시설명": "호매실도서관", "시설유형": "공공시설-복지·문화·체육시설", "주소": "경기도 수원시 권선구 칠보로 169", "시간": "07:00 ~ 23:00 (화~금), 07:00 ~ 21:00 (주말)", "구분": "누구나 이용가능" }, "geometry": { "type": "Point", "coordinates": [ 126.958038518207189, 37.266707657947883 ] } },
{ "type": "Feature", "properties": { "fid": 524, "시설명": "LH수원당수1단지(아)경로당", "시설유형": "특정계층이용시설-회원이용시설", "주소": "경기도 수원시 권선구 당수로130번길 13", "시간": "09:00 ~ 18:00 (월~금)", "구분": "특정인 이용가능" }, "geometry": { "type": "Point", "coordinates": [ 126.945864782071496, 37.284565899568186 ] } },
{ "type": "Feature", "properties": { "fid": 527, "시설명": "한라1단지(아)경로당", "시설유형": "특정계층이용시설-회원이용시설", "주소": "경기도 수원시 권선구 당진로15번길 19-10", "시간": "09:00 ~ 18:00 (월~금)", "구분": "특정인 이용가능" }, "geometry": { "type": "Point", "coordinates": [ 126.938556293068345, 37.290441021672869 ] } },
{ "type": "Feature", "properties": { "fid": 530, "시설명": "한라2단지(아)경로당", "시설유형": "특정계층이용시설-회원이용시설", "주소": "경기도 수원시 권선구 당진로31번길 16", "시간": "09:00 ~ 18:00 (월~금)", "구분": "특정인 이용가능" }, "geometry": { "type": "Point", "coordinates": [ 126.938667211411556, 37.293039635212018 ] } },
{ "type": "Feature", "properties": { "fid": 533, "시설명": "서수원쌍용스윗닷홈(아)경로당", "시설유형": "특정계층이용시설-회원이용시설", "주소": "경기도 수원시 권선구 당진로31번길 51-20", "시간": "09:00 ~ 18:00 (월~금)", "구분": "특정인 이용가능" }, "geometry": { "type": "Point", "coordinates": [ 126.936497456960709, 37.292011580298755 ] } },
{ "type": "Feature", "properties": { "fid": 536, "시설명": "삼정2단지(아)경로당", "시설유형": "특정계층이용시설-회원이용시설", "주소": "경기도 수원시 권선구 당진로14번길 46", "시간": "09:00 ~ 18:00 (월~금)", "구분": "특정인 이용가능" }, "geometry": { "type": "Point", "coordinates": [ 126.943251912065392, 37.289605845997997 ] } },
{ "type": "Feature", "properties": { "fid": 539, "시설명": "삼정1단지(아)경로당", "시설유형": "특정계층이용시설-회원이용시설", "주소": "경기도 수원시 권선구 당진로14번길 37", "시간": "09:00 ~ 18:00 (월~금)", "구분": "특정인 이용가능" }, "geometry": { "type": "Point", "coordinates": [ 126.942777038766238, 37.290507515542636 ] } },
{ "type": "Feature", "properties": { "fid": 542, "시설명": "당수경로당", "시설유형": "특정계층이용시설-회원이용시설", "주소": "경기도 수원시 권선구 당진로 21-3", "시간": "09:00 ~ 18:00 (월~금)", "구분": "특정인 이용가능" }, "geometry": { "type": "Point", "coordinates": [ 126.940200773256834, 37.290965514430972 ] } },
{ "type": "Feature", "properties": { "fid": 543, "시설명": "호반베르디움더센트럴(아)경로당", "시설유형": "경로당", "주소": "경기도 수원시 권선구 매곡로 43", "시간": "09:00 ~ 18:00 (월~금)", "구분": "특정인 이용가능" }, "geometry": { "type": "Point", "coordinates": [ 126.951465303614995, 37.270457765482853 ] } },
{ "type": "Feature", "properties": { "fid": 545, "시설명": "인정(아)경로당", "시설유형": "특정계층이용시설-회원이용시설", "주소": "경기도 수원시 권선구 당진로15번길 53", "시간": "09:00 ~ 18:00 (월~금)", "구분": "특정인 이용가능" }, "geometry": { "type": "Point", "coordinates": [ 126.937734115329647, 37.291735501675277 ] } },
{ "type": "Feature", "properties": { "fid": 546, "시설명": "상촌경로당", "시설유형": "경로당", "주소": "경기도 수원시 권선구 금곡로 5-9", "시간": "09:00 ~ 18:00 (월~금)", "구분": "특정인 이용가능" }, "geometry": { "type": "Point", "coordinates": [ 126.938127304526091, 37.268311020947728 ] } },
{ "type": "Feature", "properties": { "fid": 548, "시설명": "입북경로당", "시설유형": "특정계층이용시설-회원이용시설", "주소": "경기도 수원시 권선구 입북로 35-4", "시간": "09:00 ~ 18:00 (월~금)", "구분": "특정인 이용가능" }, "geometry": { "type": "Point", "coordinates": [ 126.959062685550066, 37.29499994904716 ] } },
{ "type": "Feature", "properties": { "fid": 549, "시설명": "신미주(아)경로당", "시설유형": "경로당", "주소": "경기도 수원시 권선구 금호로15번길 15", "시간": "09:00 ~ 18:00 (월~금)", "구분": "특정인 이용가능" }, "geometry": { "type": "Point", "coordinates": [ 126.952825607958033, 37.269596815248704 ] } },
{ "type": "Feature", "properties": { "fid": 551, "시설명": "웅비(아)경로당", "시설유형": "특정계층이용시설-회원이용시설", "주소": "경기도 수원시 권선구 입북로 65", "시간": "09:00 ~ 18:00 (월~금)", "구분": "특정인 이용가능" }, "geometry": { "type": "Point", "coordinates": [ 126.957394925110776, 37.297482564928977 ] } },
{ "type": "Feature", "properties": { "fid": 552, "시설명": "거산(아)경로당", "시설유형": "경로당", "주소": "경기도 수원시 권선구 서수원로591번길 43", "시간": "09:00 ~ 18:00 (월~금)", "구분": "특정인 이용가능" }, "geometry": { "type": "Point", "coordinates": [ 126.952957232846529, 37.277611019666935 ] } },
{ "type": "Feature", "properties": { "fid": 554, "시설명": "입북동벌터경로당", "시설유형": "특정계층이용시설-회원이용시설", "주소": "경기도 수원시 권선구 서수원로594번길 174", "시간": "09:00 ~ 18:00 (월~금)", "구분": "특정인 이용가능" }, "geometry": { "type": "Point", "coordinates": [ 126.960414842214561, 37.282625347628702 ] } },
{ "type": "Feature", "properties": { "fid": 555, "시설명": "LG빌리지(아)3-4단지경로당", "시설유형": "경로당", "주소": "경기도 수원시 권선구 금곡로73번길 71", "시간": "09:00 ~ 18:00 (월~금)", "구분": "특정인 이용가능" }, "geometry": { "type": "Point", "coordinates": [ 126.933848357701223, 37.275152636445064 ] } },
{ "type": "Feature", "properties": { "fid": 557, "시설명": "입북동푸르지오1단지(아)경로당", "시설유형": "특정계층이용시설-회원이용시설", "주소": "경기도 수원시 권선구 입북로77번길 62", "시간": "09:00 ~ 18:00 (월~금)", "구분": "특정인 이용가능" }, "geometry": { "type": "Point", "coordinates": [ 126.953032959069034, 37.3000501546069 ] } },
{ "type": "Feature", "properties": { "fid": 558, "시설명": "와이시티(아)경로당", "시설유형": "경로당", "주소": "경기도 수원시 권선구 금곡로 20", "시간": "09:00 ~ 18:00 (월~금)", "구분": "특정인 이용가능" }, "geometry": { "type": "Point", "coordinates": [ 126.93980751650227, 37.26917109196178 ] } },
{ "type": "Feature", "properties": { "fid": 560, "시설명": "서수원자이(아)경로당", "시설유형": "특정계층이용시설-회원이용시설", "주소": "경기도 수원시 권선구 입북로 50", "시간": "09:00 ~ 18:00 (월~금)", "구분": "특정인 이용가능" }, "geometry": { "type": "Point", "coordinates": [ 126.959490863985678, 37.296853753672075 ] } },
{ "type": "Feature", "properties": { "fid": 561, "시설명": "가온마을3단지경로당", "시설유형": "경로당", "주소": "경기도 수원시 권선구 서수원로577번길 263", "시간": "09:00 ~ 18:00 (월~금)", "구분": "특정인 이용가능" }, "geometry": { "type": "Point", "coordinates": [ 126.942728379467596, 37.275492649759649 ] } },
{ "type": "Feature", "properties": { "fid": 563, "시설명": "입북동푸르지오2단지(아)경로당", "시설유형": "특정계층이용시설-회원이용시설", "주소": "경기도 수원시 권선구 입북로77번길 61", "시간": "09:00 ~ 18:00 (월~금)", "구분": "특정인 이용가능" }, "geometry": { "type": "Point", "coordinates": [ 126.952898842932512, 37.298496816787953 ] } },
{ "type": "Feature", "properties": { "fid": 564, "시설명": "삼익3차(아)경로당", "시설유형": "경로당", "주소": "경기도 수원시 권선구 서수원로 589", "시간": "09:00 ~ 18:00 (월~금)", "구분": "특정인 이용가능" }, "geometry": { "type": "Point", "coordinates": [ 126.954344397443549, 37.277410739251941 ] } },
{ "type": "Feature", "properties": { "fid": 566, "시설명": "입북동행정복지센터", "시설유형": "공공시설-공공청사", "주소": "경기도 수원시 권선구 입북로 17", "시간": "09:00 ~ 18:00 (월~금)", "구분": "누구나 이용가능" }, "geometry": { "type": "Point", "coordinates": [ 126.959571724459792, 37.293274065870186 ] } },
{ "type": "Feature", "properties": { "fid": 567, "시설명": "LG빌리지(아)1단지경로당", "시설유형": "경로당", "주소": "경기도 수원시 권선구 금곡로31번길 7", "시간": "09:00 ~ 18:00 (월~금)", "구분": "특정인 이용가능" }, "geometry": { "type": "Point", "coordinates": [ 126.937397096427347, 37.269422418549915 ] } },
{ "type": "Feature", "properties": { "fid": 569, "시설명": "주)기와집", "시설유형": "생활밀착민간시설-기타", "주소": "경기도 수원시 권선구 서수원로594번길 251", "시간": "11:00 ~ 21:00 (매일)", "구분": "누구나 이용가능" }, "geometry": { "type": "Point", "coordinates": [ 126.958358143624849, 37.285630366281481 ] } },
{ "type": "Feature", "properties": { "fid": 570, "시설명": "호매실역서희스타힐스(아)경로당", "시설유형": "경로당", "주소": "경기도 수원시 권선구 금곡로 46", "시간": "09:00 ~ 18:00 (월~금)", "구분": "특정인 이용가능" }, "geometry": { "type": "Point", "coordinates": [ 126.939525527856347, 37.272318130043097 ] } },
{ "type": "Feature", "properties": { "fid": 572, "시설명": "호매실휴먼시아8단지경로당", "시설유형": "경로당", "주소": "경기도 수원시 권선구 금곡로140번길 29", "시간": "09:00 ~ 18:00 (월~금)", "구분": "특정인 이용가능" }, "geometry": { "type": "Point", "coordinates": [ 126.947132184712515, 37.272572513743526 ] } },
{ "type": "Feature", "properties": { "fid": 31, "시설명": "매탄1동행정복지센터", "시설유형": "공공시설-공공청사", "주소": "경기도 수원시 영통구 인계로189번길 119", "시간": "09:00 ~ 18:00 (월~금)", "구분": "누구나 이용가능" }, "geometry": { "type": "Point", "coordinates": [ 127.040517429088851, 37.270525051888157 ] } },
{ "type": "Feature", "properties": { "fid": 51, "시설명": "현대힐스테이트(아)경로당", "시설유형": "특정계층이용시설-회원이용시설", "주소": "경기도 수원시 영통구 권광로260번길 36", "시간": "09:00 ~ 18:00 (월~금)", "구분": "특정인 이용가능" }, "geometry": { "type": "Point", "coordinates": [ 127.039455738304696, 37.270852641897513 ] } },
{ "type": "Feature", "properties": { "fid": 37, "시설명": "우성(아)경로당", "시설유형": "특정계층이용시설-회원이용시설", "주소": "경기도 수원시 영통구 권광로290번길 34-18", "시간": "09:00 ~ 18:00 (월~금)", "구분": "특정인 이용가능" }, "geometry": { "type": "Point", "coordinates": [ 127.038040211557131, 37.273243172002651 ] } },
{ "type": "Feature", "properties": { "fid": 58, "시설명": "가마니골경로당", "시설유형": "공공시설-복지·문화·체육시설", "주소": "경기도 수원시 영통구 권광로304번길 32", "시간": "09:00 ~ 18:00 (월~금)", "구분": "누구나 이용가능" }, "geometry": { "type": "Point", "coordinates": [ 127.038667801012608, 37.274110109803885 ] } },
{ "type": "Feature", "properties": { "fid": 479, "시설명": "신성미소지움(아)경로당", "시설유형": "특정계층이용시설-회원이용시설", "주소": "경기도 수원시 팔달구 중부대로 193", "시간": "09:00 ~ 18:00 (월-금)", "구분": "특정인 이용가능" }, "geometry": { "type": "Point", "coordinates": [ 127.037235656110511, 37.277791957167054 ] } },
{ "type": "Feature", "properties": { "fid": 490, "시설명": "우만주공2단지(아)경로당", "시설유형": "특정계층이용시설-회원이용시설", "주소": "경기도 수원시 팔달구 중부대로223번길 54-13", "시간": "09:00 ~ 18:00 (월-금)", "구분": "특정인 이용가능" }, "geometry": { "type": "Point", "coordinates": [ 127.041641304693741, 37.278053846062917 ] } },
{ "type": "Feature", "properties": { "fid": 494, "시설명": "우만선경(아)경로당", "시설유형": "특정계층이용시설-회원이용시설", "주소": "경기도 수원시 팔달구 중부대로223번길 27", "시간": "09:00 ~ 18:00 (월-금)", "구분": "특정인 이용가능" }, "geometry": { "type": "Point", "coordinates": [ 127.040104426317313, 37.27739224725326 ] } },
{ "type": "Feature", "properties": { "fid": 502, "시설명": "장고개경로당", "시설유형": "특정계층이용시설-회원이용시설", "주소": "경기도 수원시 팔달구 권광로348번길 21-13", "시간": "09:00 ~ 18:00 (월-금)", "구분": "특정인 이용가능" }, "geometry": { "type": "Point", "coordinates": [ 127.039429327248229, 37.278177742086768 ] } },
{ "type": "Feature", "properties": { "fid": 510, "시설명": "우만2동행정복지센터", "시설유형": "공공시설-공공청사", "주소": "경기도 수원시 팔달구 중부대로207번길 33", "시간": "08:00 ~ 19:00 (월-금)", "구분": "누구나 이용가능" }, "geometry": { "type": "Point", "coordinates": [ 127.03975223623452, 37.277943345286857 ] } },
{ "type": "Feature", "properties": { "fid": 520, "시설명": "인계삼성(아)경로당", "시설유형": "특정계층이용시설-회원이용시설", "주소": "경기도 수원시 팔달구 권광로276번길 9", "시간": "09:00 ~ 18:00 (월-금)", "구분": "특정인 이용가능" }, "geometry": { "type": "Point", "coordinates": [ 127.036654259525648, 37.272380030907037 ] } },
{ "type": "Feature", "properties": { "fid": 538, "시설명": "인계래미안노블클래스(아)경로당", "시설유형": "특정계층이용시설-회원이용시설", "주소": "경기도 수원시 팔달구 권광로 246", "시간": "09:00 ~ 18:00 (월-금)", "구분": "특정인 이용가능" }, "geometry": { "type": "Point", "coordinates": [ 127.036656972340268, 37.269355914814227 ] } },
{ "type": "Feature", "properties": { "fid": 544, "시설명": "인계선경1차(아)경로당", "시설유형": "특정계층이용시설-회원이용시설", "주소": "경기도 수원시 팔달구 권광로317번길 12", "시간": "09:00 ~ 18:00 (월-금)", "구분": "특정인 이용가능" }, "geometry": { "type": "Point", "coordinates": [ 127.036460543179714, 37.276132302713521 ] } },
{ "type": "Feature", "properties": { "fid": 547, "시설명": "인계선경3차(아)경로당", "시설유형": "특정계층이용시설-회원이용시설", "주소": "경기도 수원시 팔달구 권광로317번길 15", "시간": "09:00 ~ 18:00 (월-금)", "구분": "특정인 이용가능" }, "geometry": { "type": "Point", "coordinates": [ 127.036012792833702, 37.275288098677677 ] } },
{ "type": "Feature", "properties": { "fid": 165, "시설명": "스마트버스정류장(고등동사거리)", "시설유형": "공공시설-스마트쉼터", "주소": "경기도 수원시 팔달구 고등동 139-31", "시간": "00:00 ~ 24:00 (월-일)", "구분": "누구나 이용가능" }, "geometry": { "type": "Point", "coordinates": [ 127.00266441487932, 37.275017034530535 ] } },
{ "type": "Feature", "properties": { "fid": 221, "시설명": "벽산(아)경로당", "시설유형": "특정계층이용시설-회원이용시설", "주소": "경기도 수원시 팔달구 팔달로165번길 39", "시간": "09:00 ~ 18:00 (월-일)", "구분": "특정인 이용가능" }, "geometry": { "type": "Point", "coordinates": [ 127.003426498739543, 37.283717047552123 ] } },
{ "type": "Feature", "properties": { "fid": 255, "시설명": "화서성원(아)경로당", "시설유형": "특정계층이용시설-회원이용시설", "주소": "경기도 수원시 팔달구 장안로5번길 45", "시간": "09:00 ~ 18:00 (월-금)", "구분": "특정인 이용가능" }, "geometry": { "type": "Point", "coordinates": [ 127.00446953808914, 37.284973099904228 ] } },
{ "type": "Feature", "properties": { "fid": 145, "시설명": "고등촌경로당", "시설유형": "특정계층이용시설-회원이용시설", "주소": "경기도 수원시 팔달구 고등로72번길 20-8", "시간": "09:00 ~ 18:00 (월-일)", "구분": "특정인 이용가능" }, "geometry": { "type": "Point", "coordinates": [ 127.00458066467759, 37.272467570538133 ] } },
{ "type": "Feature", "properties": { "fid": 152, "시설명": "고등분회경로당", "시설유형": "특정계층이용시설-회원이용시설", "주소": "경기도 수원시 팔달구 고등로71번길 24-3", "시간": "09:00 ~ 18:00 (월-일)", "구분": "특정인 이용가능" }, "geometry": { "type": "Point", "coordinates": [ 127.004800280135299, 37.274658292783101 ] } },
{ "type": "Feature", "properties": { "fid": 214, "시설명": "서화경로당", "시설유형": "특정계층이용시설-회원이용시설", "주소": "경기도 수원시 팔달구 팔달로153번길 4", "시간": "09:00 ~ 18:00 (월-일)", "구분": "특정인 이용가능" }, "geometry": { "type": "Point", "coordinates": [ 127.005454380029192, 37.282177788858597 ] } },
{ "type": "Feature", "properties": { "fid": 200, "시설명": "서문경로당", "시설유형": "특정계층이용시설-회원이용시설", "주소": "경기도 수원시 팔달구 팔달로173번길 14-13", "시간": "09:00 ~ 18:00 (월-일)", "구분": "특정인 이용가능" }, "geometry": { "type": "Point", "coordinates": [ 127.006072457713529, 37.284291370422068 ] } },
{ "type": "Feature", "properties": { "fid": 103, "시설명": "매산경로당", "시설유형": "특정계층이용시설-회원이용시설", "주소": "경기도 수원시 팔달구 매산로 61-5", "시간": "09:00 ~ 18:00 (월-일)", "구분": "특정인 이용가능" }, "geometry": { "type": "Point", "coordinates": [ 127.007551474441385, 37.269375426355502 ] } },
{ "type": "Feature", "properties": { "fid": 117, "시설명": "효원경로당", "시설유형": "특정계층이용시설-회원이용시설", "주소": "경기도 수원시 팔달구 세류로83번길 36-11", "시간": "09:00 ~ 18:00 (월-일)", "구분": "특정인 이용가능" }, "geometry": { "type": "Point", "coordinates": [ 127.008871265505533, 37.26763914549344 ] } },
{ "type": "Feature", "properties": { "fid": 34, "시설명": "힐스테이트푸르지오수원(아)제1경로당", "시설유형": "특정계층이용시설-회원이용시설", "주소": "경기도 수원시 팔달구 효원로93번길 33", "시간": "09:00 ~ 18:00 (월-금)", "구분": "특정인 이용가능" }, "geometry": { "type": "Point", "coordinates": [ 127.011737221314533, 37.268341570802022 ] } },
{ "type": "Feature", "properties": { "fid": 76, "시설명": "힐스테이트푸르지오수원(아)제2경로당", "시설유형": "특정계층이용시설-회원이용시설", "주소": "경기도 수원시 팔달구 효원로93번길 33", "시간": "09:00 ~ 18:00 (월-금)", "구분": "특정인 이용가능" }, "geometry": { "type": "Point", "coordinates": [ 127.011737221314533, 37.268341570802022 ] } },
{ "type": "Feature", "properties": { "fid": 562, "시설명": "행궁동행정복지센터", "시설유형": "공공시설-공공청사", "주소": "경기도 수원시 팔달구 신풍로23번길 40", "시간": "09:00 ~ 18:00 (월-금)", "구분": "누구나 이용가능" }, "geometry": { "type": "Point", "coordinates": [ 127.012632000039218, 37.284004142746824 ] } },
{ "type": "Feature", "properties": { "fid": 41, "시설명": "매교경로당", "시설유형": "특정계층이용시설-회원이용시설", "주소": "경기도 수원시 팔달구 매산로126번길 46-14", "시간": "09:00 ~ 18:00 (월-금)", "구분": "특정인 이용가능" }, "geometry": { "type": "Point", "coordinates": [ 127.01447637530714, 37.269895979543939 ] } },
{ "type": "Feature", "properties": { "fid": 568, "시설명": "신안동경로당", "시설유형": "특정계층이용시설-회원이용시설", "주소": "경기도 수원시 팔달구 신풍로 38-8", "시간": "09:00 ~ 18:00 (월-금)", "구분": "특정인 이용가능" }, "geometry": { "type": "Point", "coordinates": [ 127.014957602767723, 37.284306108217351 ] } },
{ "type": "Feature", "properties": { "fid": 89, "시설명": "교동경로당", "시설유형": "특정계층이용시설-회원이용시설", "주소": "경기도 수원시 팔달구 향교로 136-3", "시간": "09:00 ~ 18:00 (월-금)", "구분": "특정인 이용가능" }, "geometry": { "type": "Point", "coordinates": [ 127.015028796567549, 37.272913648586872 ] } },
{ "type": "Feature", "properties": { "fid": 96, "시설명": "중앙도서관", "시설유형": "공공시설-복지·문화·체육시설", "주소": "경기도 수원시 팔달구 팔달산로 318", "시간": "07:00 ~ 23:00 (월-일)", "구분": "누구나 이용가능" }, "geometry": { "type": "Point", "coordinates": [ 127.015489537924509, 37.274420286138358 ] } },
{ "type": "Feature", "properties": { "fid": 62, "시설명": "건영캐스빌(아)경로당", "시설유형": "특정계층이용시설-회원이용시설", "주소": "경기도 수원시 팔달구 매산로130번길 15", "시간": "09:00 ~ 18:00 (월-일)", "구분": "특정인 이용가능" }, "geometry": { "type": "Point", "coordinates": [ 127.015572761736692, 37.271268105847014 ] } },
{ "type": "Feature", "properties": { "fid": 55, "시설명": "연향예스빌(아)경로당", "시설유형": "특정계층이용시설-회원이용시설", "주소": "경기도 수원시 팔달구 정조로 687", "시간": "09:00 ~ 18:00 (월-일)", "구분": "특정인 이용가능" }, "geometry": { "type": "Point", "coordinates": [ 127.017162144159599, 37.270007174923869 ] } },
{ "type": "Feature", "properties": { "fid": 69, "시설명": "매교역푸르지오SKVIEW(아)제1경로당", "시설유형": "특정계층이용시설-회원이용시설", "주소": "경기도 수원시 팔달구 인계로 20", "시간": "09:00 ~ 18:00 (월-금)", "구분": "특정인 이용가능" }, "geometry": { "type": "Point", "coordinates": [ 127.020432942971865, 37.267736933033206 ] } },
{ "type": "Feature", "properties": { "fid": 83, "시설명": "매교역푸르지오SKVIEW(아)제2경로당", "시설유형": "특정계층이용시설-회원이용시설", "주소": "경기도 수원시 팔달구 인계로 20", "시간": "09:00 ~ 18:00 (월-금)", "구분": "특정인 이용가능" }, "geometry": { "type": "Point", "coordinates": [ 127.020432942971865, 37.267736933033206 ] } },
{ "type": "Feature", "properties": { "fid": 371, "시설명": "신흥경로당", "시설유형": "특정계층이용시설-회원이용시설", "주소": "경기도 수원시 팔달구 중부대로 49", "시간": "09:00 ~ 18:00 (월-금)", "구분": "특정인 이용가능" }, "geometry": { "type": "Point", "coordinates": [ 127.022310694540238, 37.275679469191033 ] } },
{ "type": "Feature", "properties": { "fid": 517, "시설명": "인계파밀리에(아)경로당", "시설유형": "특정계층이용시설-회원이용시설", "주소": "경기도 수원시 팔달구 세지로 211", "시간": "09:00 ~ 18:00 (월-금)", "구분": "특정인 이용가능" }, "geometry": { "type": "Point", "coordinates": [ 127.022689239872335, 37.270500798532254 ] } },
{ "type": "Feature", "properties": { "fid": 385, "시설명": "미나리광경로당", "시설유형": "특정계층이용시설-회원이용시설", "주소": "경기도 수원시 팔달구 팔달문로57번길 26", "시간": "09:00 ~ 18:00 (월-금)", "구분": "특정인 이용가능" }, "geometry": { "type": "Point", "coordinates": [ 127.023161998847741, 37.280424158498967 ] } },
{ "type": "Feature", "properties": { "fid": 553, "시설명": "수원센트럴아이파크자이아파트제1경로당", "시설유형": "특정계층이용시설-회원이용시설", "주소": "경기도 수원시 팔달구 인계로 21", "시간": "09:00 ~ 18:00 (월-금)", "구분": "특정인 이용가능" }, "geometry": { "type": "Point", "coordinates": [ 127.023682922386854, 37.270541287411994 ] } },
{ "type": "Feature", "properties": { "fid": 514, "시설명": "장다리경로당", "시설유형": "특정계층이용시설-회원이용시설", "주소": "경기도 수원시 팔달구 세지로198번길 26-14", "시간": "09:00 ~ 18:00 (월-금)", "구분": "특정인 이용가능" }, "geometry": { "type": "Point", "coordinates": [ 127.023866147252463, 37.267907267652646 ] } },
{ "type": "Feature", "properties": { "fid": 550, "시설명": "인계본동경로당", "시설유형": "특정계층이용시설-회원이용시설", "주소": "경기도 수원시 팔달구 장다리로233번길 28-27", "시간": "09:00 ~ 18:00 (월-금)", "구분": "특정인 이용가능" }, "geometry": { "type": "Point", "coordinates": [ 127.02457305378941, 37.271779584281937 ] } },
{ "type": "Feature", "properties": { "fid": 416, "시설명": "지동행정복지센터", "시설유형": "공공시설-공공청사", "주소": "경기도 수원시 팔달구 세지로 339", "시간": "09:00 ~ 18:00 (월-금)", "구분": "누구나 이용가능" }, "geometry": { "type": "Point", "coordinates": [ 127.024658547952896, 37.281515974609164 ] } },
{ "type": "Feature", "properties": { "fid": 574, "시설명": "팔달노인복지관", "시설유형": "특정계층이용시설-회원이용시설", "주소": "경기도 수원시 팔달구 수원천로 343", "시간": "09:00 ~ 18:00 (월-금)", "구분": "특정인 이용가능" }, "geometry": { "type": "Point", "coordinates": [ 127.017259615660208, 37.283938742872124 ] } },
{ "type": "Feature", "properties": { "fid": 575, "시설명": "남향동경로당", "시설유형": "특정계층이용시설-회원이용시설", "주소": "경기도 수원시 팔달구 창룡대로 43", "시간": "09:00 ~ 18:00 (월-금)", "구분": "특정인 이용가능" }, "geometry": { "type": "Point", "coordinates": [ 127.020782391230895, 37.282911783669142 ] } },
{ "type": "Feature", "properties": { "fid": 576, "시설명": "남수연화경로당", "시설유형": "특정계층이용시설-회원이용시설", "주소": "경기도 수원시 팔달구 창룡대로30번길 9", "시간": "09:00 ~ 18:00 (월-금)", "구분": "특정인 이용가능" }, "geometry": { "type": "Point", "coordinates": [ 127.020093625253381, 37.28149914143043 ] } },
{ "type": "Feature", "properties": { "fid": 577, "시설명": "중동경로당", "시설유형": "특정계층이용시설-회원이용시설", "주소": "경기도 수원시 팔달구 정조로742번길 20", "시간": "09:00 ~ 18:00 (월-금)", "구분": "특정인 이용가능" }, "geometry": { "type": "Point", "coordinates": [ 127.017835870982083, 37.274130528807767 ] } },
{ "type": "Feature", "properties": { "fid": 578, "시설명": "영동시장경로당", "시설유형": "특정계층이용시설-회원이용시설", "주소": "경기도 수원시 팔달구 수원천로255번길 6", "시간": "09:00 ~ 18:00 (월-금)", "구분": "특정인 이용가능" }, "geometry": { "type": "Point", "coordinates": [ 127.018620642145166, 37.277105343458572 ] } },
{ "type": "Feature", "properties": { "fid": 579, "시설명": "한데우물경로당", "시설유형": "특정계층이용시설-회원이용시설", "주소": "경기도 수원시 팔달구 행궁로26번길 11-6", "시간": "09:00 ~ 18:00 (월-금)", "구분": "특정인 이용가능" }, "geometry": { "type": "Point", "coordinates": [ 127.014242730816747, 37.279723464978616 ] } },
{ "type": "Feature", "properties": { "fid": 580, "시설명": "팔창경로당", "시설유형": "특정계층이용시설-회원이용시설", "주소": "경기도 수원시 팔달구 행궁로 63", "시간": "09:00 ~ 18:00 (월-금)", "구분": "특정인 이용가능" }, "geometry": { "type": "Point", "coordinates": [ 127.015793308430716, 37.276970113227314 ] } },
{ "type": "Feature", "properties": { "fid": 581, "시설명": "팔달문전시실", "시설유형": "공공시설-기타", "주소": "경기도 수원시 팔달구 정조로 782", "시간": "10:00 ~ 17:00 (월-금)", "구분": "누구나 이용가능" }, "geometry": { "type": "Point", "coordinates": [ 127.017310651599388, 37.27792781941428 ] } },
{ "type": "Feature", "properties": { "fid": 582, "시설명": "선경도서관", "시설유형": "공공시설-복지·문화·체육시설", "주소": "경기도 수원시 팔달구 신풍로23번길 68", "시간": "07:00 ~ 23:00 (화-일)", "구분": "누구나 이용가능" }, "geometry": { "type": "Point", "coordinates": [ 127.01065341848097, 37.283937730879657 ] } },
{ "type": "Feature", "properties": { "fid": 583, "시설명": "수원화성박물관", "시설유형": "공공시설-복지·문화·체육시설", "주소": "경기도 수원시 팔달구 창룡대로 21", "시간": "09:00 ~ 18:00 (월-금)", "구분": "누구나 이용가능" }, "geometry": { "type": "Point", "coordinates": [ 127.019476280280855, 37.282590252672094 ] } },
{ "type": "Feature", "properties": { "fid": 584, "시설명": "팔달구청무더위쉼터", "시설유형": "공공시설-공공청사", "주소": "경기도 수원시 팔달구 창룡대로 23", "시간": "09:00 ~ 18:00 (월-금)", "구분": "누구나 이용가능" }, "geometry": { "type": "Point", "coordinates": [ 127.019476280280855, 37.282590252672094 ] } },
{ "type": "Feature", "properties": { "fid": 352, "시설명": "꽃뫼버들마을코오롱(아)경로당", "시설유형": "특정계층이용시설-회원이용시설", "주소": "경기도 수원시 팔달구 일월로18번길 4-26", "시간": "09:00 ~ 18:00 (월-금)", "구분": "특정인 이용가능" }, "geometry": { "type": "Point", "coordinates": [ 126.982155828606338, 37.284655503916795 ] } },
{ "type": "Feature", "properties": { "fid": 283, "시설명": "화서2동행정복지센터", "시설유형": "공공시설-공공청사", "주소": "경기도 수원시 팔달구 화산로6번길 6", "시간": "09:00 ~ 18:00 (월-금)", "구분": "누구나 이용가능" }, "geometry": { "type": "Point", "coordinates": [ 126.986340116739157, 37.285090453126166 ] } },
{ "type": "Feature", "properties": { "fid": 413, "시설명": "진흥경로당", "시설유형": "경로당", "주소": "경기도 수원시 권선구 여기산로16번길 17", "시간": "09:00 ~ 18:00 (월~금)", "구분": "특정인 이용가능" }, "geometry": { "type": "Point", "coordinates": [ 126.979578225368911, 37.278905738944005 ] } },
{ "type": "Feature", "properties": { "fid": 418, "시설명": "서호(남)경로당", "시설유형": "경로당", "주소": "경기도 수원시 권선구 서호로 138", "시간": "09:00 ~ 18:00 (월~금)", "구분": "특정인 이용가능" }, "geometry": { "type": "Point", "coordinates": [ 126.985940039610995, 37.271736420966853 ] } },
{ "type": "Feature", "properties": { "fid": 425, "시설명": "서호(여)경로당", "시설유형": "경로당", "주소": "경기도 수원시 권선구 서호로115번길 5", "시간": "09:00 ~ 18:00 (월~금)", "구분": "특정인 이용가능" }, "geometry": { "type": "Point", "coordinates": [ 126.986280290929543, 37.269704277334576 ] } },
{ "type": "Feature", "properties": { "fid": 431, "시설명": "성일(아)경로당", "시설유형": "경로당", "주소": "경기도 수원시 권선구 여기산로 42", "시간": "09:00 ~ 18:00 (월~금)", "구분": "특정인 이용가능" }, "geometry": { "type": "Point", "coordinates": [ 126.979010555201057, 37.281108149237603 ] } },
{ "type": "Feature", "properties": { "fid": 443, "시설명": "서둔동남(아)경로당", "시설유형": "경로당", "주소": "경기도 수원시 권선구 여기산로 54", "시간": "09:00 ~ 18:00 (월~금)", "구분": "특정인 이용가능" }, "geometry": { "type": "Point", "coordinates": [ 126.979562179927527, 37.282653742591918 ] } },
{ "type": "Feature", "properties": { "fid": 449, "시설명": "여기산경로당", "시설유형": "경로당", "주소": "경기도 수원시 권선구 여기산로16번길 17", "시간": "09:00 ~ 18:00 (월~금)", "구분": "특정인 이용가능" }, "geometry": { "type": "Point", "coordinates": [ 126.979578225368911, 37.278905738944005 ] } },
{ "type": "Feature", "properties": { "fid": 454, "시설명": "참누리파크경로당", "시설유형": "경로당", "주소": "경기도 수원시 권선구 서둔로 270-6", "시간": "09:00 ~ 18:00 (월~금)", "구분": "특정인 이용가능" }, "geometry": { "type": "Point", "coordinates": [ 126.979501226015358, 37.274826530119491 ] } },
{ "type": "Feature", "properties": { "fid": 460, "시설명": "희성연인(아)경로당", "시설유형": "경로당", "주소": "경기도 수원시 권선구 상탑로 121", "시간": "09:00 ~ 18:00 (월~금)", "구분": "특정인 이용가능" }, "geometry": { "type": "Point", "coordinates": [ 126.984215003835047, 37.271405322119861 ] } },
{ "type": "Feature", "properties": { "fid": 466, "시설명": "북탑경로당", "시설유형": "경로당", "주소": "경기도 수원시 권선구 서둔로199번길 10", "시간": "09:00 ~ 18:00 (월~금)", "구분": "특정인 이용가능" }, "geometry": { "type": "Point", "coordinates": [ 126.978983764897208, 37.269226008130758 ] } },
{ "type": "Feature", "properties": { "fid": 471, "시설명": "청산경로당", "시설유형": "경로당", "주소": "경기도 수원시 권선구 상탑로53번길 28-1", "시간": "09:00 ~ 18:00 (월~금)", "구분": "특정인 이용가능" }, "geometry": { "type": "Point", "coordinates": [ 126.976925292076544, 37.272854160891185 ] } },
{ "type": "Feature", "properties": { "fid": 477, "시설명": "웃거리경로당", "시설유형": "경로당", "주소": "경기도 수원시 권선구 서둔로269번길 12", "시간": "09:00 ~ 18:00 (월~금)", "구분": "특정인 이용가능" }, "geometry": { "type": "Point", "coordinates": [ 126.978253754609582, 37.2752797380844 ] } },
{ "type": "Feature", "properties": { "fid": 481, "시설명": "탑동삼성(아)경로당", "시설유형": "경로당", "주소": "경기도 수원시 권선구 탑동로58번길 8", "시간": "09:00 ~ 18:00 (월~금)", "구분": "특정인 이용가능" }, "geometry": { "type": "Point", "coordinates": [ 126.974935390654892, 37.274423390299056 ] } },
{ "type": "Feature", "properties": { "fid": 485, "시설명": "탑동우방(아)경로당", "시설유형": "경로당", "주소": "경기도 수원시 권선구 효탑로 50", "시간": "09:00 ~ 18:00 (월~금)", "구분": "특정인 이용가능" }, "geometry": { "type": "Point", "coordinates": [ 126.974236842750088, 37.267711958992209 ] } },
{ "type": "Feature", "properties": { "fid": 488, "시설명": "골말경로당", "시설유형": "경로당", "주소": "경기도 수원시 권선구 상탑로21번길 35-9", "시간": "09:00 ~ 18:00 (월~금)", "구분": "특정인 이용가능" }, "geometry": { "type": "Point", "coordinates": [ 126.97259368478413, 37.272257336934516 ] } },
{ "type": "Feature", "properties": { "fid": 496, "시설명": "서둔동행정복지센터", "시설유형": "행정복지센터", "주소": "경기도 수원시 권선구 서호로 146", "시간": "09:00 ~ 18:00 (월~금)", "구분": "누구나 이용가능" }, "geometry": { "type": "Point", "coordinates": [ 126.985982630873934, 37.272440807401928 ] } },
{ "type": "Feature", "properties": { "fid": 504, "시설명": "서수원도서관", "시설유형": "도서관", "주소": "경기도 수원시 권선구 탑동로57번길 35", "시간": "07:00 ~ 23:00 (월~일)", "구분": "누구나 이용가능" }, "geometry": { "type": "Point", "coordinates": [ 126.971304068809985, 37.273138736362576 ] } },
{ "type": "Feature", "properties": { "fid": 508, "시설명": "구운동행정복지센터", "시설유형": "행정복지센터", "주소": "경기도 수원시 권선구 구운로47번길 57-33", "시간": "09:00 ~ 18:00 (월~금)", "구분": "누구나 이용가능" }, "geometry": { "type": "Point", "coordinates": [ 126.971468216040336, 37.277101253699875 ] } },
{ "type": "Feature", "properties": { "fid": 512, "시설명": "하구운경로당", "시설유형": "경로당", "주소": "경기도 수원시 권선구 구운로45번길 59-46", "시간": "09:00 ~ 18:00 (월~금)", "구분": "특정인 이용가능" }, "geometry": { "type": "Point", "coordinates": [ 126.972992472649707, 37.276385886000668 ] } },
{ "type": "Feature", "properties": { "fid": 516, "시설명": "서호노인복지관", "시설유형": "복지관", "주소": "경기도 수원시 권선구 구운로4번길 34", "시간": "09:00 ~ 18:00 (월~금)", "구분": "특정인 이용가능" }, "geometry": { "type": "Point", "coordinates": [ 126.975976790971941, 37.278937282197795 ] } },
{ "type": "Feature", "properties": { "fid": 519, "시설명": "구운동성원(아)경로당", "시설유형": "경로당", "주소": "경기도 수원시 권선구 일월천로4번길 74", "시간": "09:00 ~ 18:00 (월~금)", "구분": "특정인 이용가능" }, "geometry": { "type": "Point", "coordinates": [ 126.97612324875324, 37.283220121387849 ] } },
{ "type": "Feature", "properties": { "fid": 522, "시설명": "LD코오롱(아)경로당", "시설유형": "경로당", "주소": "경기도 수원시 권선구 일월천로16번길 39", "시간": "09:00 ~ 18:00 (월~금)", "구분": "특정인 이용가능" }, "geometry": { "type": "Point", "coordinates": [ 126.975016999529771, 37.284693762977582 ] } },
{ "type": "Feature", "properties": { "fid": 528, "시설명": "강남(아)경로당", "시설유형": "경로당", "주소": "경기도 수원시 권선구 수성로 1", "시간": "09:00 ~ 18:00 (월~금)", "구분": "특정인 이용가능" }, "geometry": { "type": "Point", "coordinates": [ 126.976136347941107, 37.281356170648671 ] } },
{ "type": "Feature", "properties": { "fid": 531, "시설명": "군들경로당", "시설유형": "경로당", "주소": "경기도 수원시 권선구 구운로45번길 8-32", "시간": "09:00 ~ 18:00 (월~금)", "구분": "특정인 이용가능" }, "geometry": { "type": "Point", "coordinates": [ 126.9712829743047, 37.277574242026439 ] } },
{ "type": "Feature", "properties": { "fid": 537, "시설명": "선경(아)경로당", "시설유형": "경로당", "주소": "경기도 수원시 권선구 여기산로 19", "시간": "09:00 ~ 18:00 (월~금)", "구분": "특정인 이용가능" }, "geometry": { "type": "Point", "coordinates": [ 126.97771839629759, 37.279020120520336 ] } },
{ "type": "Feature", "properties": { "fid": 540, "시설명": "삼환(아)경로당", "시설유형": "경로당", "주소": "경기도 수원시 권선구 수성로 47", "시간": "09:00 ~ 18:00 (월~금)", "구분": "특정인 이용가능" }, "geometry": { "type": "Point", "coordinates": [ 126.978868709319585, 37.284012820932041 ] } },
{ "type": "Feature", "properties": { "fid": 28, "시설명": "화서5단지(아)경로당", "시설유형": "특정계층이용시설-회원이용시설", "주소": "경기도 수원시 팔달구 덕영대로697번길 48", "시간": "09:00 ~ 18:00 (월-금)", "구분": "특정인 이용가능" }, "geometry": { "type": "Point", "coordinates": [ 126.992372341037168, 37.284053278480343 ] } },
{ "type": "Feature", "properties": { "fid": 193, "시설명": "영광(아)경로당", "시설유형": "특정계층이용시설-회원이용시설", "주소": "경기도 수원시 팔달구 덕영대로757번길 10", "시간": "09:00 ~ 18:00 (월-일)", "구분": "특정인 이용가능" }, "geometry": { "type": "Point", "coordinates": [ 126.99375416915592, 37.279342642707 ] } },
{ "type": "Feature", "properties": { "fid": 228, "시설명": "화서1동행정복지센터", "시설유형": "공공시설-공공청사", "주소": "경기도 수원시 팔달구 동말로4번길 10", "시간": "09:00 ~ 18:00 (월-금)", "구분": "누구나 이용가능" }, "geometry": { "type": "Point", "coordinates": [ 126.994941834276219, 37.276595001867484 ] } },
{ "type": "Feature", "properties": { "fid": 235, "시설명": "화서맨션경로당", "시설유형": "특정계층이용시설-회원이용시설", "주소": "경기도 수원시 팔달구 화양로 42", "시간": "09:00 ~ 18:00 (월-일)", "구분": "특정인 이용가능" }, "geometry": { "type": "Point", "coordinates": [ 126.996746946841554, 37.281820670767345 ] } },
{ "type": "Feature", "properties": { "fid": 179, "시설명": "수원고등LH2단지경로당", "시설유형": "특정계층이용시설-회원이용시설", "주소": "경기도 수원시 팔달구 고등로 8", "시간": "09:00 ~ 18:00 (월-금)", "구분": "특정인 이용가능" }, "geometry": { "type": "Point", "coordinates": [ 126.996918807219629, 37.271630944982455 ] } },
{ "type": "Feature", "properties": { "fid": 159, "시설명": "수원역푸르지오자이제3경로당", "시설유형": "특정계층이용시설-회원이용시설", "주소": "경기도 수원시 팔달구 고등동 310", "시간": "09:00 ~ 18:00 (월-일)", "구분": "특정인 이용가능" }, "geometry": { "type": "Point", "coordinates": [ 126.998896870521918, 37.274970396060922 ] } },
{ "type": "Feature", "properties": { "fid": 172, "시설명": "수원역푸르지오자이제2경로당", "시설유형": "특정계층이용시설-회원이용시설", "주소": "경기도 수원시 팔달구 고등로 15", "시간": "09:00 ~ 18:00 (월-일)", "구분": "특정인 이용가능" }, "geometry": { "type": "Point", "coordinates": [ 126.998896870521918, 37.274970396060922 ] } },
{ "type": "Feature", "properties": { "fid": 186, "시설명": "수원역푸르지오자이제1경로당", "시설유형": "특정계층이용시설-회원이용시설", "주소": "경기도 수원시 팔달구 고등동 310", "시간": "09:00 ~ 18:00 (월-일)", "구분": "특정인 이용가능" }, "geometry": { "type": "Point", "coordinates": [ 126.998896870521918, 37.274970396060922 ] } },
{ "type": "Feature", "properties": { "fid": 207, "시설명": "벽산블루밍푸른숲(아)경로당", "시설유형": "특정계층이용시설-회원이용시설", "주소": "경기도 수원시 팔달구 화양로50번길 30", "시간": "09:00 ~ 18:00 (월-일)", "구분": "특정인 이용가능" }, "geometry": { "type": "Point", "coordinates": [ 126.999475478317024, 37.282547495362742 ] } },
{ "type": "Feature", "properties": { "fid": 138, "시설명": "고등동행정복지센터", "시설유형": "공공시설-공공청사", "주소": "경기도 수원시 팔달구 고등로 37", "시간": "09:00 ~ 18:00 (월-금)", "구분": "누구나 이용가능" }, "geometry": { "type": "Point", "coordinates": [ 127.001090207621488, 37.273407885871222 ] } },
{ "type": "Feature", "properties": { "fid": 242, "시설명": "동말경로당", "시설유형": "특정계층이용시설-회원이용시설", "주소": "경기도 수원시 팔달구 동말로 24-6", "시간": "09:00 ~ 18:00 (월-일)", "구분": "특정인 이용가능" }, "geometry": { "type": "Point", "coordinates": [ 126.996919331993894, 37.277493476376705 ] } },
{ "type": "Feature", "properties": { "fid": 249, "시설명": "화서1동경로당", "시설유형": "특정계층이용시설-회원이용시설", "주소": "경기도 수원시 팔달구 팔달로119번길 64", "시간": "09:00 ~ 18:00 (월-금)", "구분": "특정인 이용가능" }, "geometry": { "type": "Point", "coordinates": [ 127.000064029145364, 37.279421978569118 ] } },
{ "type": "Feature", "properties": { "fid": 301, "시설명": "화서4단지(아)경로당", "시설유형": "특정계층이용시설-회원이용시설", "주소": "경기도 수원시 팔달구 덕영대로697번길 48", "시간": "09:00 ~ 18:00 (월-금)", "구분": "특정인 이용가능" }, "geometry": { "type": "Point", "coordinates": [ 126.992372341037168, 37.284053278480343 ] } },
{ "type": "Feature", "properties": { "fid": 366, "시설명": "한진현대(아)경로당", "시설유형": "특정계층이용시설-회원이용시설", "주소": "경기도 수원시 팔달구 덕영대로735번길 18", "시간": "09:00 ~ 18:00 (월-금)", "구분": "특정인 이용가능" }, "geometry": { "type": "Point", "coordinates": [ 126.993483139916762, 37.281285244859852 ] } },
{ "type": "Feature", "properties": { "fid": 437, "시설명": "센트라우스(아)경로당", "시설유형": "경로당", "주소": "경기도 수원시 권선구 세화로168번길 15", "시간": "09:00 ~ 18:00 (월~금)", "구분": "특정인 이용가능" }, "geometry": { "type": "Point", "coordinates": [ 126.9952306474285, 37.268146444930295 ] } },
{ "type": "Feature", "properties": { "fid": 402, "시설명": "진우(아)경로당", "시설유형": "특정계층이용시설-회원이용시설", "주소": "경기도 수원시 팔달구 팔달문로 82", "시간": "09:00 ~ 18:00 (월-금)", "구분": "특정인 이용가능" }, "geometry": { "type": "Point", "coordinates": [ 127.025827658212222, 37.280212101535398 ] } },
{ "type": "Feature", "properties": { "fid": 532, "시설명": "인계동경로당", "시설유형": "특정계층이용시설-회원이용시설", "주소": "경기도 수원시 팔달구 장다리로245번길 18-5", "시간": "09:00 ~ 18:00 (월-금)", "구분": "특정인 이용가능" }, "geometry": { "type": "Point", "coordinates": [ 127.025875462368063, 37.272320495769073 ] } },
{ "type": "Feature", "properties": { "fid": 378, "시설명": "지동경로당", "시설유형": "특정계층이용시설-회원이용시설", "주소": "경기도 수원시 팔달구 세지로314번길 38-13", "시간": "09:00 ~ 18:00 (월-금)", "구분": "특정인 이용가능" }, "geometry": { "type": "Point", "coordinates": [ 127.025888427572255, 37.278445265622928 ] } },
{ "type": "Feature", "properties": { "fid": 541, "시설명": "샛골경로당", "시설유형": "특정계층이용시설-회원이용시설", "주소": "경기도 수원시 팔달구 경수대로565번길 59-24", "시간": "09:00 ~ 18:00 (월-금)", "구분": "특정인 이용가능" }, "geometry": { "type": "Point", "coordinates": [ 127.027181504177193, 37.275151987420045 ] } },
{ "type": "Feature", "properties": { "fid": 16, "시설명": "못골경로당", "시설유형": "특정계층이용시설-회원이용시설", "주소": "경기도 수원시 팔달구 팔달문로115번길 43", "시간": "09:00 ~ 18:00 (월-금)", "구분": "특정인 이용가능" }, "geometry": { "type": "Point", "coordinates": [ 127.027311765141633, 37.283671088671895 ] } },
{ "type": "Feature", "properties": { "fid": 21, "시설명": "신복경로당", "시설유형": "특정계층이용시설-회원이용시설", "주소": "경기도 수원시 팔달구 중부대로125번길 23-11", "시간": "09:00 ~ 18:00 (월-금)", "구분": "특정인 이용가능" }, "geometry": { "type": "Point", "coordinates": [ 127.028973387402672, 37.279622699348465 ] } },
{ "type": "Feature", "properties": { "fid": 411, "시설명": "[생활밀착민간시설]투썸플레이스동수원사거리점", "시설유형": "생활밀착민간시설-기타", "주소": "경기도 수원시 팔달구 중부대로 129", "시간": "08:00 ~ 22:00 (월-일)", "구분": "누구나 이용가능" }, "geometry": { "type": "Point", "coordinates": [ 127.030197622135958, 37.27843961789727 ] } },
{ "type": "Feature", "properties": { "fid": 523, "시설명": "인계수정(아)경로당", "시설유형": "특정계층이용시설-회원이용시설", "주소": "경기도 수원시 팔달구 장다리로306번길 45", "시간": "09:00 ~ 18:00 (월-금)", "구분": "특정인 이용가능" }, "geometry": { "type": "Point", "coordinates": [ 127.030650814304025, 37.273257150389441 ] } },
{ "type": "Feature", "properties": { "fid": 559, "시설명": "인계동행정복지센터대강당", "시설유형": "공공시설-공공청사", "주소": "경기도 수원시 팔달구 인계로 123", "시간": "08:00 ~ 19:00 (월-금)", "구분": "누구나 이용가능" }, "geometry": { "type": "Point", "coordinates": [ 127.032033217748079, 37.26917975293199 ] } },
{ "type": "Feature", "properties": { "fid": 556, "시설명": "인계동행정복지센터", "시설유형": "공공시설-공공청사", "주소": "경기도 수원시 팔달구 인계로 123", "시간": "08:00 ~ 19:00 (월-금)", "구분": "누구나 이용가능" }, "geometry": { "type": "Point", "coordinates": [ 127.032033217748079, 37.26917975293199 ] } },
{ "type": "Feature", "properties": { "fid": 475, "시설명": "중부경로당", "시설유형": "특정계층이용시설-회원이용시설", "주소": "경기도 수원시 팔달구 경수대로616번길 32", "시간": "09:00 ~ 18:00 (월-금)", "구분": "특정인 이용가능" }, "geometry": { "type": "Point", "coordinates": [ 127.032308067692099, 37.280715607089249 ] } },
{ "type": "Feature", "properties": { "fid": 469, "시설명": "산수경로당", "시설유형": "특정계층이용시설-회원이용시설", "주소": "경기도 수원시 팔달구 팔달문로153번길 3", "시간": "09:00 ~ 18:00 (월-금)", "구분": "특정인 이용가능" }, "geometry": { "type": "Point", "coordinates": [ 127.032485467432835, 37.282992902133124 ] } },
{ "type": "Feature", "properties": { "fid": 486, "시설명": "월드메르디앙(아)경로당", "시설유형": "특정계층이용시설-회원이용시설", "주소": "경기도 수원시 팔달구 권광로 373", "시간": "09:00 ~ 18:00 (월-금)", "구분": "특정인 이용가능" }, "geometry": { "type": "Point", "coordinates": [ 127.03486093641628, 37.280772371786377 ] } },
{ "type": "Feature", "properties": { "fid": 498, "시설명": "우만주공1단지(아)경로당", "시설유형": "특정계층이용시설-회원이용시설", "주소": "경기도 수원시 팔달구 중부대로223번길 102", "시간": "09:00 ~ 18:00 (월-금)", "구분": "특정인 이용가능" }, "geometry": { "type": "Point", "coordinates": [ 127.038410764303819, 37.281826695651212 ] } },
{ "type": "Feature", "properties": { "fid": 506, "시설명": "우만현대(아)경로당", "시설유형": "특정계층이용시설-회원이용시설", "주소": "경기도 수원시 팔달구 권광로364번길 7-2", "시간": "09:00 ~ 18:00 (월-금)", "구분": "특정인 이용가능" }, "geometry": { "type": "Point", "coordinates": [ 127.037940390467796, 37.28107755866391 ] } },
{ "type": "Feature", "properties": { "fid": 507, "시설명": "곡반정동경로당", "시설유형": "특정계층이용시설-회원이용시설", "주소": "경기도 수원시 권선구 곡반정로19번길 47", "시간": "09:00 ~ 18:00 (월~금)", "구분": "특정인 이용가능" }, "geometry": { "type": "Point", "coordinates": [ 127.024994598287392, 37.234022039454175 ] } },
{ "type": "Feature", "properties": { "fid": 334, "시설명": "꿈에그린(아)경로당", "시설유형": "경로당", "주소": "경기도 수원시 권선구 서수원로 99", "시간": "09:00 ~ 18:00 (월~금)", "구분": "특정인 이용가능" }, "geometry": { "type": "Point", "coordinates": [ 126.975479318132216, 37.234847668406879 ] } },
{ "type": "Feature", "properties": { "fid": 503, "시설명": "곡선삼성(아)경로당", "시설유형": "특정계층이용시설-회원이용시설", "주소": "경기도 수원시 권선구 곡선로50번길 73", "시간": "09:00 ~ 18:00 (월~금)", "구분": "특정인 이용가능" }, "geometry": { "type": "Point", "coordinates": [ 127.028566748625593, 37.235269986986744 ] } },
{ "type": "Feature", "properties": { "fid": 515, "시설명": "한솔(아)경로당", "시설유형": "특정계층이용시설-회원이용시설", "주소": "경기도 수원시 권선구 동수원로58번길 21", "시간": "09:00 ~ 18:00 (월~금)", "구분": "특정인 이용가능" }, "geometry": { "type": "Point", "coordinates": [ 127.027234337033477, 37.235840641976182 ] } },
{ "type": "Feature", "properties": { "fid": 511, "시설명": "곡반정아이파크(아)경로당", "시설유형": "특정계층이용시설-회원이용시설", "주소": "경기도 수원시 권선구 곡선로50번길 48", "시간": "09:00 ~ 18:00 (월~금)", "구분": "특정인 이용가능" }, "geometry": { "type": "Point", "coordinates": [ 127.027801878548374, 37.237039029706835 ] } },
{ "type": "Feature", "properties": { "fid": 448, "시설명": "한림도서관", "시설유형": "공공시설-복지·문화·체육시설", "주소": "경기도 수원시 권선구 동수원로25번길 32-110", "시간": "07:00 ~ 23:00 (월~목), 07:00 ~ 21:00 (주말)", "구분": "누구나 이용가능" }, "geometry": { "type": "Point", "coordinates": [ 127.024915009454503, 37.23755336818607 ] } },
{ "type": "Feature", "properties": { "fid": 424, "시설명": "아이파크시티5", "시설유형": "6단지(아)경로당", "주소": "특정계층이용시설-회원이용시설", "시간": "경기도 수원시 권선구 권선동 1355-0", "구분": "09:00 ~ 18:00 (월~금)" }, "geometry": { "type": "Point", "coordinates": [ 127.025699858205385, 37.239145066084291 ] } },
{ "type": "Feature", "properties": { "fid": 518, "시설명": "수원하늘채더퍼스트2단지(아)경로당", "시설유형": "특정계층이용시설-회원이용시설", "주소": "경기도 수원시 권선구 망포로 14", "시간": "09:00 ~ 18:00 (월~금)", "구분": "특정인 이용가능" }, "geometry": { "type": "Point", "coordinates": [ 127.035044169698295, 37.239804353692527 ] } },
{ "type": "Feature", "properties": { "fid": 225, "시설명": "영통엘클래스2단지경로당", "시설유형": "특정계층이용시설-회원이용시설", "주소": "경기도 수원시 영통구 망포로48번길 7 (영통 롯데캐슬 엘클래스 2단지)", "시간": "09:00 ~ 18:00 (월~금)", "구분": "특정인 이용가능" }, "geometry": { "type": "Point", "coordinates": [ 127.039075218906959, 37.240087326425567 ] } },
{ "type": "Feature", "properties": { "fid": 328, "시설명": "청구1차(아)경로당", "시설유형": "경로당", "주소": "경기도 수원시 권선구 오목천로39번길 8", "시간": "09:00 ~ 18:00 (월~금)", "구분": "특정인 이용가능" }, "geometry": { "type": "Point", "coordinates": [ 126.967720612322253, 37.240596486362286 ] } },
{ "type": "Feature", "properties": { "fid": 436, "시설명": "화성대(아)경로당", "시설유형": "특정계층이용시설-회원이용시설", "주소": "경기도 수원시 권선구 경수대로168번길 79", "시간": "09:00 ~ 18:00 (월~금)", "구분": "특정인 이용가능" }, "geometry": { "type": "Point", "coordinates": [ 127.022842876562152, 37.240688778384836 ] } },
{ "type": "Feature", "properties": { "fid": 309, "시설명": "영조(아)경로당", "시설유형": "경로당", "주소": "경기도 수원시 권선구 서수원로 161-11", "시간": "09:00 ~ 18:00 (월~금)", "구분": "특정인 이용가능" }, "geometry": { "type": "Point", "coordinates": [ 126.969059796871264, 37.241145505342573 ] } },
{ "type": "Feature", "properties": { "fid": 321, "시설명": "상송마을주공(아)경로당", "시설유형": "경로당", "주소": "경기도 수원시 권선구 오목천로 15", "시간": "09:00 ~ 18:00 (월~금)", "구분": "특정인 이용가능" }, "geometry": { "type": "Point", "coordinates": [ 126.963690778142123, 37.241418845233625 ] } },
{ "type": "Feature", "properties": { "fid": 341, "시설명": "가림리경로당", "시설유형": "경로당", "주소": "경기도 수원시 권선구 매송고색로503번길 89", "시간": "09:00 ~ 18:00 (월~금)", "구분": "특정인 이용가능" }, "geometry": { "type": "Point", "coordinates": [ 126.956471528430157, 37.246570679648663 ] } },
{ "type": "Feature", "properties": { "fid": 25, "시설명": "청구2차(아)경로당 경로당", "시설유형": "경로당", "주소": "경기도 수원시 권선구 매송고색로506번길 17", "시간": "09:00 ~ 18:00 (월~금)", "구분": "특정인 이용가능" }, "geometry": { "type": "Point", "coordinates": [ 126.961743948145681, 37.243496308739353 ] } },
{ "type": "Feature", "properties": { "fid": 316, "시설명": "태산3차(아)경로당", "시설유형": "경로당", "주소": "경기도 수원시 권선구 매송고색로533번길 7", "시간": "09:00 ~ 18:00 (월~금)", "구분": "특정인 이용가능" }, "geometry": { "type": "Point", "coordinates": [ 126.962416032954081, 37.245873020312885 ] } },
{ "type": "Feature", "properties": { "fid": 361, "시설명": "서희스타힐스(아)경로당", "시설유형": "경로당", "주소": "경기도 수원시 권선구 온정로9번길 36", "시간": "09:00 ~ 18:00 (월~금)", "구분": "특정인 이용가능" }, "geometry": { "type": "Point", "coordinates": [ 126.963011199287394, 37.247705788327792 ] } },
{ "type": "Feature", "properties": { "fid": 354, "시설명": "남광하우스토리(아)경로당", "시설유형": "경로당", "주소": "경기도 수원시 권선구 삼천병마로1598번길 28-16", "시간": "09:00 ~ 18:00 (월~금)", "구분": "특정인 이용가능" }, "geometry": { "type": "Point", "coordinates": [ 126.965479268950176, 37.245108504081827 ] } },
{ "type": "Feature", "properties": { "fid": 387, "시설명": "오목천경로당", "시설유형": "경로당", "주소": "경기도 수원시 권선구 삼천병마로1566번길 44", "시간": "09:00 ~ 18:00 (월~금)", "구분": "특정인 이용가능" }, "geometry": { "type": "Point", "coordinates": [ 126.96549863853717, 37.242304292351335 ] } },
{ "type": "Feature", "properties": { "fid": 294, "시설명": "대우푸르지오1단지(아)경로당", "시설유형": "경로당", "주소": "경기도 수원시 권선구 서수원로 219", "시간": "09:00 ~ 18:00 (월~금)", "구분": "특정인 이용가능" }, "geometry": { "type": "Point", "coordinates": [ 126.967166614166715, 37.246070234941975 ] } },
{ "type": "Feature", "properties": { "fid": 303, "시설명": "대우푸르지오2단지(아)경로당", "시설유형": "경로당", "주소": "경기도 수원시 권선구 서수원로183번길 2", "시간": "09:00 ~ 18:00 (월~금)", "구분": "특정인 이용가능" }, "geometry": { "type": "Point", "coordinates": [ 126.968003443253451, 37.244196985433014 ] } },
{ "type": "Feature", "properties": { "fid": 22, "시설명": "우림필유(아)경로당", "시설유형": "경로당", "주소": "경기도 수원시 권선구 고색로 8", "시간": "09:00 ~ 18:00 (월~금)", "구분": "특정인 이용가능" }, "geometry": { "type": "Point", "coordinates": [ 126.978252007893119, 37.247790426380156 ] } },
{ "type": "Feature", "properties": { "fid": 4, "시설명": "대한(아)경로당", "시설유형": "경로당", "주소": "경기도 수원시 권선구 서부로 1534", "시간": "09:00 ~ 18:00 (월~금)", "구분": "특정인 이용가능" }, "geometry": { "type": "Point", "coordinates": [ 126.979375593816286, 37.246214741392961 ] } },
{ "type": "Feature", "properties": { "fid": 367, "시설명": "고색1동경로당", "시설유형": "경로당", "주소": "경기도 수원시 권선구 고산로27번길 23", "시간": "09:00 ~ 18:00 (월~금)", "구분": "특정인 이용가능" }, "geometry": { "type": "Point", "coordinates": [ 126.980512317368678, 37.24862236505097 ] } },
{ "type": "Feature", "properties": { "fid": 285, "시설명": "연합대원(아)경로당", "시설유형": "경로당", "주소": "경기도 수원시 권선구 고산로6번길 45", "시간": "09:00 ~ 18:00 (월~금)", "구분": "특정인 이용가능" }, "geometry": { "type": "Point", "coordinates": [ 126.984201413758115, 37.248505938644954 ] } },
{ "type": "Feature", "properties": { "fid": 251, "시설명": "고색거산(아)경로당", "시설유형": "경로당", "주소": "경기도 수원시 권선구 고현로5번길 25", "시간": "09:00 ~ 18:00 (월~금)", "구분": "특정인 이용가능" }, "geometry": { "type": "Point", "coordinates": [ 126.986121452092561, 37.24791137980197 ] } },
{ "type": "Feature", "properties": { "fid": 380, "시설명": "고색향토문화전시관", "시설유형": "전시관", "주소": "경기도 수원시 권선구 오목천로 276", "시간": "09:00 ~ 18:00 (화~일)", "구분": "누구나 이용가능" }, "geometry": { "type": "Point", "coordinates": [ 126.992007508805969, 37.245500156660547 ] } },
{ "type": "Feature", "properties": { "fid": 105, "시설명": "세정경로당", "시설유형": "경로당", "주소": "경기도 수원시 권선구 정조로413번길 38", "시간": "09:00 ~ 18:00 (월~금)", "구분": "특정인 이용가능" }, "geometry": { "type": "Point", "coordinates": [ 127.012800692903681, 37.247548382416383 ] } },
{ "type": "Feature", "properties": { "fid": 85, "시설명": "세리경로당", "시설유형": "경로당", "주소": "경기도 수원시 권선구 경수대로235번길 68-4", "시간": "09:00 ~ 18:00 (월~금)", "구분": "특정인 이용가능" }, "geometry": { "type": "Point", "coordinates": [ 127.014309162288313, 37.249656223938686 ] } },
{ "type": "Feature", "properties": { "fid": 140, "시설명": "미영(아)경로당", "시설유형": "경로당", "주소": "경기도 수원시 권선구 정조로 432", "시간": "09:00 ~ 18:00 (월~금)", "구분": "특정인 이용가능" }, "geometry": { "type": "Point", "coordinates": [ 127.014341306985003, 37.248313713873856 ] } },
{ "type": "Feature", "properties": { "fid": 133, "시설명": "신곡경로당", "시설유형": "경로당", "주소": "경기도 수원시 권선구 경수대로191번길 14-4", "시간": "09:00 ~ 18:00 (월~금)", "구분": "특정인 이용가능" }, "geometry": { "type": "Point", "coordinates": [ 127.016679409460593, 37.244559644146442 ] } },
{ "type": "Feature", "properties": { "fid": 327, "시설명": "아이파크시티7단지(아)경로당", "시설유형": "특정계층이용시설-회원이용시설", "주소": "경기도 수원시 권선구 덕영대로1190번길 100", "시간": "09:00 ~ 18:00 (월~금)", "구분": "특정인 이용가능" }, "geometry": { "type": "Point", "coordinates": [ 127.020124399868109, 37.246538251911929 ] } },
{ "type": "Feature", "properties": { "fid": 407, "시설명": "스마트버스정류장(수원버스터미널)", "시설유형": "공공시설-스마트쉼터", "주소": "경기도 수원시 권선구 권선동 341-14", "시간": "00:00 ~ 24:00 (월~토)", "구분": "누구나 이용가능" }, "geometry": { "type": "Point", "coordinates": [ 127.020933752058653, 37.249140773270419 ] } },
{ "type": "Feature", "properties": { "fid": 320, "시설명": "두산동아(아)경로당", "시설유형": "특정계층이용시설-회원이용시설", "주소": "경기도 수원시 권선구 덕영대로1217번길 24", "시간": "09:00 ~ 18:00 (월~금)", "구분": "특정인 이용가능" }, "geometry": { "type": "Point", "coordinates": [ 127.025420879621748, 37.249389510832529 ] } },
{ "type": "Feature", "properties": { "fid": 372, "시설명": "아이파크시티3단지(아)경로당", "시설유형": "특정계층이용시설-회원이용시설", "주소": "경기도 수원시 권선구 동수원로145번길 73", "시간": "09:00 ~ 18:00 (월~금)", "구분": "특정인 이용가능" }, "geometry": { "type": "Point", "coordinates": [ 127.025955320130592, 37.242392329662103 ] } },
{ "type": "Feature", "properties": { "fid": 315, "시설명": "아이파크시티1단지(아)경로당", "시설유형": "특정계층이용시설-회원이용시설", "주소": "경기도 수원시 권선구 동수원로145번길 74", "시간": "09:00 ~ 18:00 (월~금)", "구분": "특정인 이용가능" }, "geometry": { "type": "Point", "coordinates": [ 127.026760653620443, 37.245640319978996 ] } },
{ "type": "Feature", "properties": { "fid": 360, "시설명": "유원보성(아)경로당", "시설유형": "특정계층이용시설-회원이용시설", "주소": "경기도 수원시 권선구 권중로 110", "시간": "09:00 ~ 18:00 (월~금)", "구분": "특정인 이용가능" }, "geometry": { "type": "Point", "coordinates": [ 127.028088264828739, 37.249084022647466 ] } },
{ "type": "Feature", "properties": { "fid": 308, "시설명": "아이파크시티4단지(아)경로당", "시설유형": "특정계층이용시설-회원이용시설", "주소": "경기도 수원시 권선구 동수원로145번길 23", "시간": "09:00 ~ 18:00 (월~금)", "구분": "특정인 이용가능" }, "geometry": { "type": "Point", "coordinates": [ 127.02819491765635, 37.242219395639168 ] } },
{ "type": "Feature", "properties": { "fid": 353, "시설명": "아이파크시티2단지(아)경로당", "시설유형": "특정계층이용시설-회원이용시설", "주소": "경기도 수원시 권선구 동수원로145번길 24", "시간": "09:00 ~ 18:00 (월~금)", "구분": "특정인 이용가능" }, "geometry": { "type": "Point", "coordinates": [ 127.029420680391055, 37.245151365320794 ] } },
{ "type": "Feature", "properties": { "fid": 393, "시설명": "벽산한성(아)경로당", "시설유형": "특정계층이용시설-회원이용시설", "주소": "경기도 수원시 권선구 권중로 99", "시간": "09:00 ~ 18:00 (월~금)", "구분": "특정인 이용가능" }, "geometry": { "type": "Point", "coordinates": [ 127.030291114235382, 37.249889940246526 ] } },
{ "type": "Feature", "properties": { "fid": 459, "시설명": "스마트버스정류장(수원아이파크시티.선일초교)", "시설유형": "공공시설-스마트쉼터", "주소": "경기도 수원시 권선구 권선동 1368-1", "시간": "00:00 ~ 24:00 (매일)", "구분": "누구나 이용가능" }, "geometry": { "type": "Point", "coordinates": [ 127.030303079938065, 37.246909187157001 ] } },
{ "type": "Feature", "properties": { "fid": 19, "시설명": "아이파크시티8단지(아)경로당", "시설유형": "특정계층이용시설-회원이용시설", "주소": "경기도 수원시 권선구 동수원로177번길 40", "시간": "09:00 ~ 18:00 (월~금)", "구분": "특정인 이용가능" }, "geometry": { "type": "Point", "coordinates": [ 127.03031267809952, 37.246677753683741 ] } },
{ "type": "Feature", "properties": { "fid": 398, "시설명": "신동아대원(아)경로당", "시설유형": "특정계층이용시설-회원이용시설", "주소": "경기도 수원시 권선구 권중로 136", "시간": "09:00 ~ 18:00 (월~금)", "구분": "특정인 이용가능" }, "geometry": { "type": "Point", "coordinates": [ 127.031882306176499, 37.248549861787502 ] } },
{ "type": "Feature", "properties": { "fid": 476, "시설명": "곡선동행정복지센터", "시설유형": "공공시설-공공청사", "주소": "경기도 수원시 권선구 동수원로146번길 174", "시간": "09:00 ~ 18:00 (월~금)", "구분": "누구나 이용가능" }, "geometry": { "type": "Point", "coordinates": [ 127.033221565114843, 37.243112847566373 ] } },
{ "type": "Feature", "properties": { "fid": 491, "시설명": "권선3지구주공1단지(아)경로당", "시설유형": "특정계층이용시설-회원이용시설", "주소": "경기도 수원시 권선구 덕영대로1323번길 25-8", "시간": "09:00 ~ 18:00 (월~금)", "구분": "특정인 이용가능" }, "geometry": { "type": "Point", "coordinates": [ 127.035406931141779, 37.248102284303293 ] } },
{ "type": "Feature", "properties": { "fid": 487, "시설명": "수원하늘채더퍼스트1단지(아)경로당", "시설유형": "특정계층이용시설-회원이용시설", "주소": "경기도 수원시 권선구 곡반정로 188", "시간": "09:00 ~ 18:00 (월~금)", "구분": "특정인 이용가능" }, "geometry": { "type": "Point", "coordinates": [ 127.035725093478291, 37.243122167816878 ] } },
{ "type": "Feature", "properties": { "fid": 480, "시설명": "써미트빌(아)경로당", "시설유형": "특정계층이용시설-회원이용시설", "주소": "경기도 수원시 권선구 덕영대로1323번길 26-24", "시간": "09:00 ~ 18:00 (월~금)", "구분": "특정인 이용가능" }, "geometry": { "type": "Point", "coordinates": [ 127.037434834692732, 37.246263454269247 ] } },
{ "type": "Feature", "properties": { "fid": 470, "시설명": "대림(아)경로당", "시설유형": "특정계층이용시설-회원이용시설", "주소": "경기도 수원시 권선구 덕영대로1323번길 26-31", "시간": "09:00 ~ 18:00 (월~금)", "구분": "특정인 이용가능" }, "geometry": { "type": "Point", "coordinates": [ 127.037982894390623, 37.247703030382532 ] } },
{ "type": "Feature", "properties": { "fid": 465, "시설명": "대우(아)경로당", "시설유형": "특정계층이용시설-회원이용시설", "주소": "경기도 수원시 권선구 동탄원천로813번길 16", "시간": "09:00 ~ 18:00 (월~금)", "구분": "특정인 이용가능" }, "geometry": { "type": "Point", "coordinates": [ 127.038749966069616, 37.249076485667274 ] } },
{ "type": "Feature", "properties": { "fid": 495, "시설명": "권선3지구현대(아)경로당", "시설유형": "특정계층이용시설-회원이용시설", "주소": "경기도 수원시 권선구 세권로316번길 49", "시간": "09:00 ~ 18:00 (월~금)", "구분": "특정인 이용가능" }, "geometry": { "type": "Point", "coordinates": [ 127.037410912484219, 37.249392681983885 ] } },
{ "type": "Feature", "properties": { "fid": 499, "시설명": "안용경로당", "시설유형": "특정계층이용시설-회원이용시설", "주소": "경기도 수원시 권선구 동수원로146번길 16-10", "시간": "09:00 ~ 18:00 (월~금)", "구분": "특정인 이용가능" }, "geometry": { "type": "Point", "coordinates": [ 127.03258313223148, 37.243505173405637 ] } },